country,state,city,station,last_update,latitude,longitude,pollutant_id,pollutant_min,pollutant_max,pollutant_avg
India,Andhra_Pradesh,Vijayawada,"Rajiv Nagar, Vijayawada - APPCB",08-04-2025 15:00,16.554731,80.64911,NO2,NA,NA,NA
India,Andhra_Pradesh,Vijayawada,"Rajiv Nagar, Vijayawada - APPCB",08-04-2025 15:00,16.554731,80.64911,NH3,NA,NA,NA
India,Assam,Byrnihat,"Central Academy for SFS, Byrnihat - PCBA",08-04-2025 15:00,26.071318,91.87488,CO,41,60,58
India,Assam,Byrnihat,"Central Academy for SFS, Byrnihat - PCBA",08-04-2025 15:00,26.071318,91.87488,OZONE,21,66,35
India,Assam,Guwahati,"IITG, Guwahati - PCBA",08-04-2025 15:00,26.2028636,91.70046436,PM2.5,70,313,152
India,Assam,Guwahati,"IITG, Guwahati - PCBA",08-04-2025 15:00,26.2028636,91.70046436,PM10,101,275,150
India,Assam,Guwahati,"IITG, Guwahati - PCBA",08-04-2025 15:00,26.2028636,91.70046436,NH3,5,5,5
India,Bihar,Bettiah,"Kamalnath Nagar, Bettiah - BSPCB",08-04-2025 15:00,26.80365,84.51954,SO2,7,25,18
India,Bihar,Bhagalpur,"DM Office_Kachari Chowk, Bhagalpur - BSPCB",08-04-2025 15:00,25.251013,86.989001,PM10,30,105,56
India,Bihar,Bhagalpur,"Mayaganj, Bhagalpur - BSPCB",08-04-2025 15:00,25.265194,87.012947,NO2,9,11,10
India,Bihar,Bhagalpur,"Mayaganj, Bhagalpur - BSPCB",08-04-2025 15:00,25.265194,87.012947,NH3,3,4,4
India,Bihar,Bihar Sharif,"D M Colony, Bihar Sharif - BSPCB",08-04-2025 15:00,25.204762,85.51496,NO2,9,10,9
India,Bihar,Bihar Sharif,"D M Colony, Bihar Sharif - BSPCB",08-04-2025 15:00,25.204762,85.51496,NH3,1,2,2
India,Andaman and Nicobar,Sri Vijaya Puram,"Police Line, Sri Vijaya Puram - ANPCC",08-04-2025 15:00,11.654054,92.734055,SO2,4,23,14
India,Andaman and Nicobar,Sri Vijaya Puram,"Police Line, Sri Vijaya Puram - ANPCC",08-04-2025 15:00,11.654054,92.734055,OZONE,3,21,12
India,Andhra_Pradesh,Amaravati,"Secretariat, Amaravati - APPCB",08-04-2025 15:00,16.5150833,80.5181667,CO,16,93,59
India,Andhra_Pradesh,Anantapur,"Gulzarpet, Anantapur - APPCB",08-04-2025 15:00,14.675886,77.593027,SO2,NA,NA,NA
India,Andhra_Pradesh,Vijayawada,"HB Colony, Vijayawada - APPCB",08-04-2025 15:00,16.536107,80.594233,NO2,14,23,16
India,Andhra_Pradesh,Vijayawada,"Kanuru, Vijayawada - APPCB",08-04-2025 15:00,16.486692,80.699436,SO2,10,20,13
India,Andhra_Pradesh,Vijayawada,"Rajiv Gandhi Park, Vijayawada - APPCB",08-04-2025 15:00,16.509717,80.612222,NO2,42,61,51
India,Andhra_Pradesh,Vijayawada,"Rajiv Nagar, Vijayawada - APPCB",08-04-2025 15:00,16.554731,80.64911,PM2.5,NA,NA,NA
India,Andhra_Pradesh,Vijayawada,"Rajiv Nagar, Vijayawada - APPCB",08-04-2025 15:00,16.554731,80.64911,PM10,NA,NA,NA
India,Andhra_Pradesh,Tirumala,"Toll Gate, Tirumala - APPCB (Formerly known as Tirumala, Tirupati - APPCB)",08-04-2025 15:00,13.67,79.35,NO2,15,22,18
India,Andhra_Pradesh,Tirumala,"Toll Gate, Tirumala - APPCB (Formerly known as Tirumala, Tirupati - APPCB)",08-04-2025 15:00,13.67,79.35,NH3,1,2,1
India,Andhra_Pradesh,Tirumala,"Toll Gate, Tirumala - APPCB (Formerly known as Tirumala, Tirupati - APPCB)",08-04-2025 15:00,13.67,79.35,OZONE,8,49,28
India,Andhra_Pradesh,Tirupati,"Vaikuntapuram, Tirupati - APPCB",08-04-2025 15:00,13.615387,79.40923,SO2,16,20,17
India,Assam,Guwahati,"LGBI Airport, Guwahati - PCBA",08-04-2025 15:00,26.10887,91.589544,PM10,57,329,162
India,Assam,Guwahati,"LGBI Airport, Guwahati - PCBA",08-04-2025 15:00,26.10887,91.589544,NH3,14,17,16
India,Assam,Guwahati,"Pan Bazaar, Guwahati - PCBA",08-04-2025 15:00,26.1875,91.744194,PM10,94,167,120
India,Assam,Guwahati,"Railway Colony, Guwahati - PCBA",08-04-2025 15:00,26.181742,91.78063,NO2,3,3,3
India,Assam,Nagaon,"Christianpatty, Nagaon - PCBA",08-04-2025 15:00,26.349082,92.68449,NH3,3,4,4
India,Assam,Nalbari,"Bata Chowk, Nalbari - PCBA",08-04-2025 15:00,26.446912,91.439057,NO2,1,7,3
India,Assam,Silchar,"Tarapur, Silchar - PCBA",08-04-2025 15:00,24.82827,92.79525,NH3,1,3,3
India,Assam,Silchar,"Tarapur, Silchar - PCBA",08-04-2025 15:00,24.82827,92.79525,CO,22,32,26
India,Assam,Sivasagar,"Girls College, Sivasagar - PCBA",08-04-2025 15:00,26.987634,94.636574,PM10,65,98,81
India,Assam,Sivasagar,"Girls College, Sivasagar - PCBA",08-04-2025 15:00,26.987634,94.636574,CO,9,32,22
India,Bihar,Arrah,"New DM Office, Arrah - BSPCB",08-04-2025 15:00,25.5626095,84.663264,PM2.5,28,50,38
India,Bihar,Aurangabad,"Gurdeo Nagar, Aurangabad - BSPCB",08-04-2025 15:00,24.75746,84.366208,NO2,2,3,2
India,Bihar,Begusarai,"Lohiyanagar, Begusarai - BSPCB",08-04-2025 15:00,25.42742023,86.13886079,PM2.5,NA,NA,NA
India,Andhra_Pradesh,Chittoor,"Gangineni Cheruvu, Chittoor - APPCB",08-04-2025 15:00,13.20488,79.097889,PM2.5,37,91,62
India,Andhra_Pradesh,Kadapa,"Yerramukkapalli, Kadapa - APPCB",08-04-2025 15:00,14.465052,78.824187,SO2,14,16,15
India,Bihar,Patna,"DRM Office Danapur, Patna - BSPCB",08-04-2025 15:00,25.586562,85.043586,NO2,29,36,32
India,Bihar,Patna,"DRM Office Danapur, Patna - BSPCB",08-04-2025 15:00,25.586562,85.043586,NH3,2,3,3
India,Bihar,Patna,"DRM Office Danapur, Patna - BSPCB",08-04-2025 15:00,25.586562,85.043586,CO,38,58,50
India,Bihar,Patna,"Govt. High School Shikarpur, Patna - BSPCB",08-04-2025 15:00,25.592539,85.227158,PM2.5,38,79,60
India,Bihar,Patna,"Govt. High School Shikarpur, Patna - BSPCB",08-04-2025 15:00,25.592539,85.227158,PM10,90,127,111
India,Bihar,Patna,"Govt. High School Shikarpur, Patna - BSPCB",08-04-2025 15:00,25.592539,85.227158,NH3,11,14,12
India,Bihar,Patna,"Govt. High School Shikarpur, Patna - BSPCB",08-04-2025 15:00,25.592539,85.227158,CO,34,68,50
India,Bihar,Patna,"IGSC Planetarium Complex, Patna - BSPCB",08-04-2025 15:00,25.610369,85.132568,SO2,13,32,26
India,Bihar,Patna,"IGSC Planetarium Complex, Patna - BSPCB",08-04-2025 15:00,25.610369,85.132568,OZONE,39,43,42
India,Bihar,Patna,"Muradpur, Patna - BSPCB",08-04-2025 15:00,25.619651,85.147382,PM2.5,103,185,133
India,Bihar,Patna,"Muradpur, Patna - BSPCB",08-04-2025 15:00,25.619651,85.147382,PM10,123,208,162
India,Bihar,Patna,"Muradpur, Patna - BSPCB",08-04-2025 15:00,25.619651,85.147382,OZONE,6,41,23
India,Bihar,Patna,"Rajbansi Nagar, Patna - BSPCB",08-04-2025 15:00,25.599486,85.113666,PM10,73,119,99
India,Bihar,Patna,"Rajbansi Nagar, Patna - BSPCB",08-04-2025 15:00,25.599486,85.113666,NO2,6,27,10
India,Bihar,Patna,"Rajbansi Nagar, Patna - BSPCB",08-04-2025 15:00,25.599486,85.113666,SO2,1,2,2
India,Bihar,Patna,"Rajbansi Nagar, Patna - BSPCB",08-04-2025 15:00,25.599486,85.113666,OZONE,30,99,41
India,Bihar,Patna,"Samanpura, Patna - BSPCB",08-04-2025 15:00,25.596727,85.085624,PM10,112,172,142
India,Bihar,Patna,"Samanpura, Patna - BSPCB",08-04-2025 15:00,25.596727,85.085624,NH3,6,7,6
India,Bihar,Patna,"Samanpura, Patna - BSPCB",08-04-2025 15:00,25.596727,85.085624,SO2,3,4,4
India,Bihar,Purnia,"Mariam Nagar, Purnia - BSPCB",08-04-2025 15:00,25.366336,87.117468,OZONE,21,42,30
India,Bihar,Rajgir,"Dangi Tola, Rajgir - BSPCB",08-04-2025 15:00,25.0328,85.41948,PM10,NA,NA,NA
India,Bihar,Saharsa,"Police Line, Saharsa - BSPCB",08-04-2025 15:00,25.892357,86.590325,PM10,57,135,90
India,Bihar,Saharsa,"Police Line, Saharsa - BSPCB",08-04-2025 15:00,25.892357,86.590325,CO,16,66,41
India,Bihar,Samastipur,"DM Office_Kasipur, Samastipur - BSPCB",08-04-2025 15:00,25.859655,85.77944,NO2,1,3,2
India,Bihar,Samastipur,"DM Office_Kasipur, Samastipur - BSPCB",08-04-2025 15:00,25.859655,85.77944,SO2,6,29,24
India,Bihar,Sasaram,"Dada Peer, Sasaram - BSPCB",08-04-2025 15:00,24.952822,84.002396,PM2.5,110,253,171
India,Bihar,Munger,"Town Hall, Munger - BSPCB",08-04-2025 15:00,25.376776,86.471523,OZONE,2,11,5
India,Bihar,Muzaffarpur,"Buddha Colony, Muzaffarpur - BSPCB",08-04-2025 15:00,26.11442,85.39813,NH3,7,10,9
India,Bihar,Muzaffarpur,"MIT-Daudpur Kothi, Muzaffarpur - BSPCB",08-04-2025 15:00,26.1403345,85.3650192,PM2.5,38,273,91
India,Bihar,Muzaffarpur,"MIT-Daudpur Kothi, Muzaffarpur - BSPCB",08-04-2025 15:00,26.1403345,85.3650192,NH3,2,5,2
India,Bihar,Muzaffarpur,"Muzaffarpur Collectorate, Muzaffarpur - BSPCB",08-04-2025 15:00,26.1209,85.3647,CO,14,41,21
India,Bihar,Chhapra,"Darshan Nagar, Chhapra - BSPCB",08-04-2025 15:00,25.7808257,84.7446768,CO,8,13,9
India,Bihar,Chhapra,"Darshan Nagar, Chhapra - BSPCB",08-04-2025 15:00,25.7808257,84.7446768,OZONE,6,87,50
India,Bihar,Gaya,"Collectorate, Gaya - BSPCB",08-04-2025 15:00,24.7955,84.9994,SO2,14,15,14
India,Bihar,Gaya,"Kareemganj, Gaya - BSPCB",08-04-2025 15:00,24.792403,84.992416,NH3,4,6,5
India,Bihar,Gaya,"SFTI Kusdihra, Gaya - BSPCB",08-04-2025 15:00,24.762518,84.982348,NO2,18,25,22
India,Bihar,Hajipur,"Industrial Area, Hajipur - BSPCB",08-04-2025 15:00,25.697189,85.2459,OZONE,49,141,80
India,Bihar,Katihar,"Mirchaibari, Katihar - BSPCB",08-04-2025 15:00,25.560083,87.553265,NH3,1,1,1
India,Bihar,Katihar,"Mirchaibari, Katihar - BSPCB",08-04-2025 15:00,25.560083,87.553265,SO2,15,24,20
India,Bihar,Kishanganj,"SDM Office_Khagra, Kishanganj - BSPCB",08-04-2025 15:00,26.0881305,87.93840336,NO2,2,4,3
India,Bihar,Sasaram,"Dada Peer, Sasaram - BSPCB",08-04-2025 15:00,24.952822,84.002396,PM10,82,125,102
India,Bihar,Siwan,"Chitragupta Nagar, Siwan - BSPCB",08-04-2025 15:00,26.2271665,84.3570427,NO2,8,14,10
India,Chandigarh,Chandigarh,"Sector 22, Chandigarh - CPCC",08-04-2025 15:00,30.735567,76.775714,NO2,29,320,94
India,Bihar,Munger,"Town Hall, Munger - BSPCB",08-04-2025 15:00,25.376776,86.471523,NO2,21,23,23
India,Bihar,Munger,"Town Hall, Munger - BSPCB",08-04-2025 15:00,25.376776,86.471523,NH3,6,9,7
India,Bihar,Munger,"Town Hall, Munger - BSPCB",08-04-2025 15:00,25.376776,86.471523,SO2,NA,NA,NA
India,Bihar,Bihar Sharif,"D M Colony, Bihar Sharif - BSPCB",08-04-2025 15:00,25.204762,85.51496,CO,10,12,12
India,Chhattisgarh,Kunjemura,"OP Jindal School, Kunjemura - CECB",08-04-2025 15:00,22.12665,83.483212,OZONE,8,9,8
India,Chhattisgarh,Milupara,"Govt. Higher Secondary School, Milupara - CECB",08-04-2025 15:00,22.1910172,83.5197009,CO,11,57,24
India,Chhattisgarh,Raipur,"AIIMS, Raipur - CECB",08-04-2025 15:00,21.258815,81.578979,NO2,35,89,56
India,Chhattisgarh,Raipur,"AIIMS, Raipur - CECB",08-04-2025 15:00,21.258815,81.578979,CO,26,95,36
India,Chhattisgarh,Raipur,"Bhatagaon New ISBT, Raipur - CECB",08-04-2025 15:00,21.219665,81.630094,PM2.5,6,54,34
India,Delhi,Delhi,"Burari Crossing, Delhi - IMD",08-04-2025 15:00,28.7256504,77.2011573,CO,30,55,43
India,Delhi,Delhi,"CRRI Mathura Road, Delhi - IMD",08-04-2025 15:00,28.5512005,77.2735737,PM10,104,400,207
India,Delhi,Delhi,"CRRI Mathura Road, Delhi - IMD",08-04-2025 15:00,28.5512005,77.2735737,NO2,10,149,54
India,Delhi,Delhi,"Chandni Chowk, Delhi - IITM",08-04-2025 15:00,28.656756,77.227234,PM2.5,NA,NA,NA
India,Delhi,Delhi,"Chandni Chowk, Delhi - IITM",08-04-2025 15:00,28.656756,77.227234,PM10,NA,NA,NA
India,Delhi,Delhi,"Chandni Chowk, Delhi - IITM",08-04-2025 15:00,28.656756,77.227234,NO2,74,183,126
India,Chhattisgarh,Chhal,"Nawapara SECL Colony, Chhal - CECB",08-04-2025 15:00,22.118125,83.140608,CO,26,39,28
India,Chhattisgarh,Korba,"Rampur, Korba - CECB",08-04-2025 15:00,22.368195,82.746431,NO2,22,37,27
India,Chhattisgarh,Korba,"Rampur, Korba - CECB",08-04-2025 15:00,22.368195,82.746431,NH3,1,1,1
India,Chhattisgarh,Korba,"Rampur, Korba - CECB",08-04-2025 15:00,22.368195,82.746431,SO2,17,28,21
India,Chhattisgarh,Korba,"Rampur, Korba - CECB",08-04-2025 15:00,22.368195,82.746431,OZONE,4,9,5
India,Chhattisgarh,Korba,"Urja Nagar, Korba - CECB",08-04-2025 15:00,22.348441,82.549611,PM2.5,85,311,204
India,Chhattisgarh,Bhilai,"Civic Center, Bhilai - Bhilai Steel Plant",08-04-2025 15:00,21.185571,81.343175,SO2,9,11,10
India,Chhattisgarh,Bhilai,"Hathkhoj, Bhilai - CECB",08-04-2025 15:00,21.224231,81.40835,NO2,17,96,57
India,Chhattisgarh,Bhilai,"Hathkhoj, Bhilai - CECB",08-04-2025 15:00,21.224231,81.40835,SO2,7,98,35
India,Chhattisgarh,Chhal,"Nawapara SECL Colony, Chhal - CECB",08-04-2025 15:00,22.118125,83.140608,PM2.5,29,62,44
India,Delhi,Delhi,"Dr. Karni Singh Shooting Range, Delhi - DPCC",08-04-2025 15:00,28.498571,77.26484,CO,12,114,29
India,Delhi,Delhi,"Dwarka-Sector 8, Delhi - DPCC ",08-04-2025 15:00,28.5710274,77.0719006,PM10,131,332,211
India,Delhi,Delhi,"IGI Airport (T3), Delhi - IMD",08-04-2025 15:00,28.5627763,77.1180053,NO2,50,166,106
India,Delhi,Delhi,"Anand Vihar, Delhi - DPCC",08-04-2025 15:00,28.647622,77.315809,SO2,6,36,18
India,Delhi,Delhi,"Anand Vihar, Delhi - DPCC",08-04-2025 15:00,28.647622,77.315809,CO,100,173,112
India,Delhi,Delhi,"Ashok Vihar, Delhi - DPCC",08-04-2025 15:00,28.695381,77.181665,NO2,26,151,80
India,Delhi,Delhi,"Bawana, Delhi - DPCC",08-04-2025 15:00,28.7762,77.051074,NO2,15,65,39
India,Chandigarh,Chandigarh,"Sector-25, Chandigarh - CPCC",08-04-2025 15:00,30.751462,76.762879,CO,18,86,32
India,Chandigarh,Chandigarh,"Sector-25, Chandigarh - CPCC",08-04-2025 15:00,30.751462,76.762879,OZONE,1,88,60
India,Chandigarh,Chandigarh,"Sector-53, Chandigarh - CPCC",08-04-2025 15:00,30.719859,76.738637,PM2.5,60,263,121
India,Chandigarh,Chandigarh,"Sector-53, Chandigarh - CPCC",08-04-2025 15:00,30.719859,76.738637,SO2,6,18,7
India,Chhattisgarh,Raipur,"Bhatagaon New ISBT, Raipur - CECB",08-04-2025 15:00,21.219665,81.630094,OZONE,6,30,10
India,Chhattisgarh,Raipur,"Siltara Phase-II, Raipur - CECB",08-04-2025 15:00,21.371751,81.664929,NH3,3,3,3
India,Chhattisgarh,Raipur,"Siltara Phase-II, Raipur - CECB",08-04-2025 15:00,21.371751,81.664929,OZONE,4,31,16
India,Chhattisgarh,Tumidih,"OP Jindal Industrial Park, Tumidih - CECB",08-04-2025 15:00,22.06631475,83.33820077,SO2,NA,NA,NA
India,Delhi,Delhi,"Anand Vihar, Delhi - DPCC",08-04-2025 15:00,28.647622,77.315809,NO2,31,120,77
India,Delhi,Delhi,"ITO, Delhi - CPCB",08-04-2025 15:00,28.628624,77.24106,PM2.5,73,316,202
India,Delhi,Delhi,"ITO, Delhi - CPCB",08-04-2025 15:00,28.628624,77.24106,NO2,12,226,87
India,Delhi,Delhi,"ITO, Delhi - CPCB",08-04-2025 15:00,28.628624,77.24106,NH3,8,16,11
India,Delhi,Delhi,"ITO, Delhi - CPCB",08-04-2025 15:00,28.628624,77.24106,SO2,11,34,24
India,Delhi,Delhi,"Jahangirpuri, Delhi - DPCC",08-04-2025 15:00,28.73282,77.170633,PM2.5,85,336,241
India,Delhi,Delhi,"Jahangirpuri, Delhi - DPCC",08-04-2025 15:00,28.73282,77.170633,PM10,147,486,276
India,Delhi,Delhi,"Jahangirpuri, Delhi - DPCC",08-04-2025 15:00,28.73282,77.170633,NO2,72,161,107
India,Delhi,Delhi,"Jahangirpuri, Delhi - DPCC",08-04-2025 15:00,28.73282,77.170633,SO2,25,70,41
India,Delhi,Delhi,"Jawaharlal Nehru Stadium, Delhi - DPCC",08-04-2025 15:00,28.58028,77.233829,NO2,65,169,119
India,Delhi,Delhi,"Jawaharlal Nehru Stadium, Delhi - DPCC",08-04-2025 15:00,28.58028,77.233829,NH3,16,25,21
India,Delhi,Delhi,"Jawaharlal Nehru Stadium, Delhi - DPCC",08-04-2025 15:00,28.58028,77.233829,SO2,3,40,17
India,Delhi,Delhi,"Jawaharlal Nehru Stadium, Delhi - DPCC",08-04-2025 15:00,28.58028,77.233829,OZONE,9,78,40
India,Delhi,Delhi,"Lodhi Road, Delhi - IITM",08-04-2025 15:00,28.588333,77.221667,PM10,117,215,173
India,Delhi,Delhi,"Lodhi Road, Delhi - IMD",08-04-2025 15:00,28.5918245,77.2273074,PM10,NA,NA,NA
India,Delhi,Delhi,"Lodhi Road, Delhi - IMD",08-04-2025 15:00,28.5918245,77.2273074,CO,24,32,29
India,Delhi,Delhi,"Major Dhyan Chand National Stadium, Delhi - DPCC",08-04-2025 15:00,28.611281,77.237738,NH3,17,21,19
India,Delhi,Delhi,"Mandir Marg, Delhi - DPCC",08-04-2025 15:00,28.636429,77.201067,NO2,140,188,163
India,Delhi,Delhi,"Najafgarh, Delhi - DPCC",08-04-2025 15:00,28.570173,76.933762,OZONE,6,321,301
India,Delhi,Delhi,"Narela, Delhi - DPCC",08-04-2025 15:00,28.822836,77.101981,NH3,7,15,10
India,Delhi,Delhi,"Narela, Delhi - DPCC",08-04-2025 15:00,28.822836,77.101981,CO,18,69,36
India,Delhi,Delhi,"Narela, Delhi - DPCC",08-04-2025 15:00,28.822836,77.101981,OZONE,5,84,34
India,Delhi,Delhi,"Nehru Nagar, Delhi - DPCC",08-04-2025 15:00,28.56789,77.250515,PM10,97,311,219
India,Delhi,Delhi,"Nehru Nagar, Delhi - DPCC",08-04-2025 15:00,28.56789,77.250515,OZONE,2,321,305
India,Delhi,Delhi,"North Campus, DU, Delhi - IMD",08-04-2025 15:00,28.6573814,77.1585447,CO,107,141,116
India,Delhi,Delhi,"Mundka, Delhi - DPCC",08-04-2025 15:00,28.684678,77.076574,PM10,140,461,280
India,Delhi,Delhi,"Mundka, Delhi - DPCC",08-04-2025 15:00,28.684678,77.076574,SO2,6,34,17
India,Delhi,Delhi,"Mundka, Delhi - DPCC",08-04-2025 15:00,28.684678,77.076574,CO,2,82,10
India,Delhi,Delhi,"NSIT Dwarka, Delhi - CPCB",08-04-2025 15:00,28.60909,77.0325413,CO,12,113,21
India,Delhi,Delhi,"Najafgarh, Delhi - DPCC",08-04-2025 15:00,28.570173,76.933762,PM10,123,319,192
India,Delhi,Delhi,"Pusa, Delhi - IMD",08-04-2025 15:00,28.63611,77.173332,NO2,44,170,94
India,Delhi,Delhi,"R K Puram, Delhi - DPCC",08-04-2025 15:00,28.563262,77.186937,NH3,5,7,6
India,Delhi,Delhi,"R K Puram, Delhi - DPCC",08-04-2025 15:00,28.563262,77.186937,OZONE,7,78,47
India,Delhi,Delhi,"Rohini, Delhi - DPCC",08-04-2025 15:00,28.732528,77.11992,CO,32,84,43
India,Delhi,Delhi,"Rohini, Delhi - DPCC",08-04-2025 15:00,28.732528,77.11992,OZONE,5,301,248
India,Delhi,Delhi,"Patparganj, Delhi - DPCC",08-04-2025 15:00,28.623763,77.287209,NH3,16,33,24
India,Delhi,Delhi,"Punjabi Bagh, Delhi - DPCC",08-04-2025 15:00,28.674045,77.131023,PM10,105,371,197
India,Delhi,Delhi,"Shadipur, Delhi - CPCB",08-04-2025 15:00,28.6514781,77.1473105,NH3,5,10,7
India,Delhi,Delhi,"Sirifort, Delhi - CPCB",08-04-2025 15:00,28.5504249,77.2159377,SO2,72,79,75
India,Delhi,Delhi,"Vivek Vihar, Delhi - DPCC",08-04-2025 15:00,28.672342,77.31526,NH3,1,4,3
India,Delhi,Delhi,"Vivek Vihar, Delhi - DPCC",08-04-2025 15:00,28.672342,77.31526,SO2,10,70,20
India,Delhi,Delhi,"Pusa, Delhi - DPCC",08-04-2025 15:00,28.639652,77.146275,NO2,36,152,93
India,Delhi,Delhi,"Wazirpur, Delhi - DPCC",08-04-2025 15:00,28.699793,77.165453,CO,27,108,70
India,Gujarat,Ahmedabad,"Chandkheda, Ahmedabad - IITM",08-04-2025 15:00,23.107969,72.574648,PM10,58,154,97
India,Gujarat,Ahmedabad,"Chandkheda, Ahmedabad - IITM",08-04-2025 15:00,23.107969,72.574648,NO2,48,167,86
India,Gujarat,Ahmedabad,"Chandkheda, Ahmedabad - IITM",08-04-2025 15:00,23.107969,72.574648,CO,15,115,36
India,Gujarat,Ahmedabad,"Chandkheda, Ahmedabad - IITM",08-04-2025 15:00,23.107969,72.574648,OZONE,3,138,60
India,Gujarat,Ahmedabad,"Gyaspur, Ahmedabad - IITM",08-04-2025 15:00,22.977134,72.553024,PM2.5,NA,NA,NA
India,Gujarat,Ahmedabad,"Maninagar, Ahmedabad - GPCB",08-04-2025 15:00,23.002657,72.591912,PM2.5,12,198,60
India,Gujarat,Ahmedabad,"Maninagar, Ahmedabad - GPCB",08-04-2025 15:00,23.002657,72.591912,PM10,67,413,153
India,Gujarat,Ahmedabad,"Raikhad, Ahmedabad - IITM",08-04-2025 15:00,23.020509,72.579261,PM10,46,107,65
India,Gujarat,Ahmedabad,"Raikhad, Ahmedabad - IITM",08-04-2025 15:00,23.020509,72.579261,SO2,9,22,16
India,Gujarat,Ahmedabad,"Raikhad, Ahmedabad - IITM",08-04-2025 15:00,23.020509,72.579261,CO,1,161,11
India,Gujarat,Ahmedabad,"Raikhad, Ahmedabad - IITM",08-04-2025 15:00,23.020509,72.579261,OZONE,4,79,30
India,Gujarat,Ankleshwar,"GIDC, Ankleshwar - GPCB",08-04-2025 15:00,21.613267,73.010555,NH3,8,10,8
India,Gujarat,Gandhinagar,"GIFT City, Gandhinagar - IITM",08-04-2025 15:00,23.163798,72.677768,PM2.5,42,317,103
India,Gujarat,Gandhinagar,"IIPHG Lekawada, Gandhinagar - IITM",08-04-2025 15:00,23.243639,72.68994,PM2.5,46,213,115
India,Gujarat,Ahmedabad,"SVPI Airport Hansol, Ahmedabad - IITM",08-04-2025 15:00,23.076793,72.627874,CO,10,103,16
India,Gujarat,Ahmedabad,"Sardar Vallabhbhai Patel Stadium, Ahmedabad - IITM",08-04-2025 15:00,23.04307,72.562968,SO2,9,56,30
India,Gujarat,Ahmedabad,"Sardar Vallabhbhai Patel Stadium, Ahmedabad - IITM",08-04-2025 15:00,23.04307,72.562968,OZONE,5,72,52
India,Gujarat,Ahmedabad,"SAC ISRO Bopal, Ahmedabad - IITM",08-04-2025 15:00,23.041137,72.456691,SO2,1,2,1
India,Gujarat,Ahmedabad,"SAC ISRO Satellite, Ahmedabad - IITM",08-04-2025 15:00,23.023389,72.515201,PM2.5,82,261,154
India,Gujarat,Ahmedabad,"SAC ISRO Satellite, Ahmedabad - IITM",08-04-2025 15:00,23.023389,72.515201,SO2,4,70,31
India,Gujarat,Gandhinagar,"Sector-10, Gandhinagar - GPCB",08-04-2025 15:00,23.221714,72.654328,CO,6,106,10
India,Gujarat,Nandesari,"GIDC, Nandesari - Nandesari Ind. Association",08-04-2025 15:00,22.410802,73.097923,PM2.5,NA,NA,NA
India,Gujarat,Vatva,"Phase-4 GIDC, Vatva - GPCB",08-04-2025 15:00,22.969611,72.6435,PM2.5,31,289,103
India,Gujarat,Ahmedabad,"Rakhial, Ahmedabad - IITM",08-04-2025 15:00,23.016834,72.625775,NH3,6,14,8
India,Gujarat,Surat,"Science Center, Surat - SMC",08-04-2025 15:00,21.170046,72.795405,NO2,NA,NA,NA
India,Haryana,Panchgaon,"Amity University, Panchgaon - IITM",08-04-2025 15:00,28.3153,76.9143,NO2,33,76,59
India,Haryana,Panchgaon,"Amity University, Panchgaon - IITM",08-04-2025 15:00,28.3153,76.9143,SO2,13,40,26
India,Himachal Pradesh,Baddi,"HIMUDA Complex Phase-1, Baddi - HPPCB",08-04-2025 15:00,30.943887,76.801991,NO2,8,55,22
India,Himachal Pradesh,Baddi,"HIMUDA Complex Phase-1, Baddi - HPPCB",08-04-2025 15:00,30.943887,76.801991,OZONE,84,189,159
India,Jharkhand,Dhanbad,"Sardar Patel Nagar, Dhanbad - JSPCB",08-04-2025 15:00,23.80569,86.44268,OZONE,16,58,26
India,Karnataka,Bagalkot,"Vidayagiri, Bagalkot - KSPCB",08-04-2025 15:00,16.172806,75.659694,PM10,45,46,46
India,Karnataka,Belgaum,"Ramteerth Nagar, Belgaum - KSPCB",08-04-2025 15:00,15.888653,74.541751,PM10,NA,NA,NA
India,Karnataka,Belgaum,"Ramteerth Nagar, Belgaum - KSPCB",08-04-2025 15:00,15.888653,74.541751,OZONE,19,20,19
India,Karnataka,Bengaluru,"Shivapura_Peenya, Bengaluru - KSPCB",08-04-2025 15:00,13.0246342,77.5080115,OZONE,19,21,19
India,Karnataka,Bengaluru,"Silk Board, Bengaluru - KSPCB",08-04-2025 15:00,12.917348,77.622813,PM2.5,NA,NA,NA
India,Karnataka,Bengaluru,"Silk Board, Bengaluru - KSPCB",08-04-2025 15:00,12.917348,77.622813,SO2,NA,NA,NA
India,Karnataka,Bidar,"Naubad, Bidar - KSPCB",08-04-2025 15:00,17.930306,77.482194,NO2,NA,NA,NA
India,Karnataka,Bengaluru,"Jigani, Bengaluru - KSPCB",08-04-2025 15:00,12.7816279,77.6299145,PM10,NA,NA,NA
India,Karnataka,Bengaluru,"Kasturi Nagar, Bengaluru - KSPCB",08-04-2025 15:00,13.003872,77.664217,NO2,17,23,22
India,Karnataka,Bengaluru,"Peenya, Bengaluru - CPCB",08-04-2025 15:00,13.0270199,77.494094,NO2,16,22,20
India,Karnataka,Bengaluru,"Hombegowda Nagar, Bengaluru - KSPCB",08-04-2025 15:00,12.938539,77.5901,PM10,28,64,43
India,Karnataka,Bengaluru,"Jayanagar 5th Block, Bengaluru - KSPCB",08-04-2025 15:00,12.920984,77.584908,NH3,1,1,1
India,Karnataka,Bengaluru,"Sanegurava Halli, Bengaluru - KSPCB",08-04-2025 15:00,12.990328,77.5431385,NO2,22,38,25
India,Karnataka,Bengaluru,"Sanegurava Halli, Bengaluru - KSPCB",08-04-2025 15:00,12.990328,77.5431385,CO,6,56,33
India,Karnataka,Bengaluru,"City Railway Station, Bengaluru - KSPCB",08-04-2025 15:00,12.9756843,77.5660749,PM10,NA,NA,NA
India,Karnataka,Bengaluru,"City Railway Station, Bengaluru - KSPCB",08-04-2025 15:00,12.9756843,77.5660749,CO,53,94,65
India,Karnataka,Chikkaballapur,"Chikkaballapur Rural, Chikkaballapur - KSPCB",08-04-2025 15:00,13.428828,77.731418,PM10,NA,NA,NA
India,Jammu_and_Kashmir,Srinagar,"Rajbagh, Srinagar - JKSPCB",08-04-2025 15:00,34.066206,74.81982,SO2,1,53,7
India,Karnataka,Hubballi,"Lingaraj Nagar, Hubballi - KSPCB",08-04-2025 15:00,15.3714823,75.1160168,PM2.5,34,44,36
India,Karnataka,Hubballi,"Lingaraj Nagar, Hubballi - KSPCB",08-04-2025 15:00,15.3714823,75.1160168,CO,6,30,18
India,Karnataka,Kalaburagi,"Lal Bahadur Shastri Nagar, Kalaburagi - KSPCB",08-04-2025 15:00,17.321993,76.822628,PM2.5,37,92,62
India,Karnataka,Kalaburagi,"Lal Bahadur Shastri Nagar, Kalaburagi - KSPCB",08-04-2025 15:00,17.321993,76.822628,NH3,1,2,2
India,Karnataka,Kalaburagi,"Lal Bahadur Shastri Nagar, Kalaburagi - KSPCB",08-04-2025 15:00,17.321993,76.822628,OZONE,24,72,51
India,Karnataka,Kalaburagi,"Mahatma Basaveswar Colony, Kalaburgi - KSPCB",08-04-2025 15:00,17.336318,76.847397,PM2.5,25,66,38
India,Karnataka,Kalaburagi,"Mahatma Basaveswar Colony, Kalaburgi - KSPCB",08-04-2025 15:00,17.336318,76.847397,PM10,36,86,53
India,Kerala,Kannur,"Thavakkara, Kannur - Kerala PCB",08-04-2025 15:00,11.875,75.3732,SO2,5,6,5
India,Kerala,Kollam,"Polayathode, Kollam - Kerala PCB",08-04-2025 15:00,8.8787,76.6073,PM10,59,67,62
India,Kerala,Kollam,"Polayathode, Kollam - Kerala PCB",08-04-2025 15:00,8.8787,76.6073,SO2,1,5,3
India,Kerala,Kollam,"Polayathode, Kollam - Kerala PCB",08-04-2025 15:00,8.8787,76.6073,CO,13,17,15
India,Kerala,Thiruvananthapuram,"Kariavattom, Thiruvananthapuram - Kerala PCB",08-04-2025 15:00,8.5637,76.8865,PM2.5,45,50,48
India,Kerala,Thiruvananthapuram,"Plammoodu, Thiruvananthapuram - Kerala PCB",08-04-2025 15:00,8.5149093,76.9435879,PM10,15,101,48
India,Kerala,Thiruvananthapuram,"Plammoodu, Thiruvananthapuram - Kerala PCB",08-04-2025 15:00,8.5149093,76.9435879,SO2,5,42,20
India,Madhya Pradesh,Bhopal,"T T Nagar, Bhopal - MPPCB",08-04-2025 15:00,23.233584,77.400574,SO2,9,62,26
India,Madhya Pradesh,Damoh,"Shrivastav Colony, Damoh - MPPCB",08-04-2025 15:00,23.81748678,79.446246,PM10,NA,NA,NA
India,Madhya Pradesh,Damoh,"Shrivastav Colony, Damoh - MPPCB",08-04-2025 15:00,23.81748678,79.446246,SO2,NA,NA,NA
India,Madhya Pradesh,Dewas,"Bhopal Chauraha, Dewas - MPPCB",08-04-2025 15:00,22.9682591,76.064118,OZONE,29,77,33
India,Madhya Pradesh,Gwalior,"City Center, Gwalior - MPPCB",08-04-2025 15:00,26.203442,78.193251,CO,37,92,48
India,Madhya Pradesh,Gwalior,"City Center, Gwalior - MPPCB",08-04-2025 15:00,26.203442,78.193251,OZONE,39,166,72
India,Karnataka,Davanagere,"Devaraj Urs Badavane, Davanagere - KSPCB",08-04-2025 15:00,14.4758,75.9052,PM10,35,64,52
India,Karnataka,Davanagere,"Devaraj Urs Badavane, Davanagere - KSPCB",08-04-2025 15:00,14.4758,75.9052,NO2,10,16,13
India,Karnataka,Dharwad,"Kalabhavan, Dharwad - KSPCB",08-04-2025 15:00,15.459706,75.008381,PM2.5,42,72,52
India,Karnataka,Dharwad,"Kalabhavan, Dharwad - KSPCB",08-04-2025 15:00,15.459706,75.008381,PM10,49,88,63
India,Karnataka,Dharwad,"Kalabhavan, Dharwad - KSPCB",08-04-2025 15:00,15.459706,75.008381,NO2,19,26,22
India,Karnataka,Gadag,"Panchal Nagar, Gadag - KSPCB",08-04-2025 15:00,15.411456,75.638133,NO2,4,21,13
India,Karnataka,Tumakuru,"Thimmalapura, Tumakuru - KSPCB",08-04-2025 15:00,13.377516,77.099072,PM10,131,192,162
India,Karnataka,Yadgir,"Collector Office, Yadgir - KSPCB",08-04-2025 15:00,16.7602,77.1428,PM10,48,114,78
India,Karnataka,Yadgir,"Collector Office, Yadgir - KSPCB",08-04-2025 15:00,16.7602,77.1428,NO2,37,90,52
India,Kerala,Eloor,"Udyogamandal, Eloor - Kerala PCB",08-04-2025 15:00,10.073232,76.302765,NH3,1,1,1
India,Madhya Pradesh,Gwalior,"Maharaj Bada, Gwalior - MPPCB",08-04-2025 15:00,26.200388,78.147714,PM10,NA,NA,NA
India,Madhya Pradesh,Gwalior,"Maharaj Bada, Gwalior - MPPCB",08-04-2025 15:00,26.200388,78.147714,NO2,2,4,3
India,Madhya Pradesh,Indore,"Airport Area, Indore - IMC",08-04-2025 15:00,22.7289,75.8076,PM10,58,113,81
India,Madhya Pradesh,Indore,"Airport Area, Indore - IMC",08-04-2025 15:00,22.7289,75.8076,SO2,16,16,16
India,Karnataka,Koppal,"Diwator Nagar, Koppal - KSPCB",08-04-2025 15:00,15.34763,76.181767,NH3,1,3,2
India,Karnataka,Koppal,"Diwator Nagar, Koppal - KSPCB",08-04-2025 15:00,15.34763,76.181767,SO2,15,28,22
India,Karnataka,Madikeri,"Stuart Hill, Madikeri - KSPCB",08-04-2025 15:00,12.415911,75.73505,PM10,37,52,42
India,Karnataka,Madikeri,"Stuart Hill, Madikeri - KSPCB",08-04-2025 15:00,12.415911,75.73505,NH3,1,2,1
India,Karnataka,Mysuru,"Hebbal 1st Stage, Mysuru - KSPCB",08-04-2025 15:00,12.21041,76.37376,NO2,10,29,20
India,Karnataka,Ramanagara,"Vijay Nagar, Ramanagara - KSPCB",08-04-2025 15:00,12.733409,77.298051,PM10,52,119,69
India,Karnataka,Ramanagara,"Vijay Nagar, Ramanagara - KSPCB",08-04-2025 15:00,12.733409,77.298051,NO2,11,24,18
India,Kerala,Thrissur,"Corporation Ground, Thrissur - Kerala PCB",08-04-2025 15:00,10.5324,76.2159,SO2,1,1,1
India,Kerala,Thrissur,"Corporation Ground, Thrissur - Kerala PCB",08-04-2025 15:00,10.5324,76.2159,OZONE,28,31,30
India,Madhya Pradesh,Pithampur,"Sector-2 Industrial Area, Pithampur - MPPCB",08-04-2025 15:00,22.624758,75.675238,OZONE,47,127,95
India,Madhya Pradesh,Ratlam,"Shasthri Nagar, Ratlam - IPCA Lab",08-04-2025 15:00,23.331731,75.045981,PM2.5,42,103,59
India,Madhya Pradesh,Ratlam,"Shasthri Nagar, Ratlam - IPCA Lab",08-04-2025 15:00,23.331731,75.045981,SO2,40,47,42
India,Madhya Pradesh,Sagar,"Civil Lines, Sagar - MPPCB",08-04-2025 15:00,23.838586,78.759431,PM10,28,89,54
India,Madhya Pradesh,Sagar,"Deen Dayal Nagar, Sagar - MPPCB",08-04-2025 15:00,23.8640158,78.80289321,NO2,8,83,23
India,Madhya Pradesh,Satna,"Bandhavgar Colony, Satna - Birla Cement",08-04-2025 15:00,24.58434363,80.8549414,PM2.5,41,43,42
India,Madhya Pradesh,Katni,"Gole Bazar, Katni - MPPCB",08-04-2025 15:00,23.50016,80.23284,NH3,2,4,3
India,Madhya Pradesh,Maihar,"Sahilara, Maihar - KJS Cements",08-04-2025 15:00,24.2613009,80.7231783,PM2.5,5,72,41
India,Madhya Pradesh,Maihar,"Sahilara, Maihar - KJS Cements",08-04-2025 15:00,24.2613009,80.7231783,CO,18,24,22
India,Madhya Pradesh,Mandideep,"Sector-D Industrial Area, Mandideep - MPPCB",08-04-2025 15:00,23.10844,77.511428,NH3,4,11,6
India,Maharashtra,Belapur,"CBD Belapur, Belapur - MPCB",08-04-2025 15:00,19.0243902,73.0406721,NH3,7,20,9
India,Maharashtra,Bhiwandi,"Gokul Nagar, Bhiwandi - MPCB",08-04-2025 15:00,19.309073,73.057223,NO2,33,55,42
India,Maharashtra,Bhiwandi,"Gokul Nagar, Bhiwandi - MPCB",08-04-2025 15:00,19.309073,73.057223,CO,20,88,47
India,Maharashtra,Chandrapur,"Chauhan Colony, Chandrapur - MPCB",08-04-2025 15:00,19.9629,79.298714,NO2,NA,NA,NA
India,Madhya Pradesh,Indore,"Chhoti Gwaltoli, Indore - MPPCB",08-04-2025 15:00,22.431,75.5213,PM10,98,369,172
India,Madhya Pradesh,Indore,"Chhoti Gwaltoli, Indore - MPPCB",08-04-2025 15:00,22.431,75.5213,NH3,1,11,7
India,Madhya Pradesh,Indore,"Chhoti Gwaltoli, Indore - MPPCB",08-04-2025 15:00,22.431,75.5213,SO2,8,52,16
India,Madhya Pradesh,Indore,"Regional Park, Indore - IMC",08-04-2025 15:00,22.678,75.8559,PM10,NA,NA,NA
India,Madhya Pradesh,Indore,"Regional Park, Indore - IMC",08-04-2025 15:00,22.678,75.8559,OZONE,6,16,11
India,Maharashtra,Aurangabad,"More Chowk Waluj, Aurangabad - MPCB",08-04-2025 15:00,19.8389439,75.244448,SO2,20,27,24
India,Maharashtra,Aurangabad,"Rachnakar Colony, Aurangabad - MPCB",08-04-2025 15:00,19.863756,75.321188,SO2,5,19,13
India,Maharashtra,Badlapur,"Katrap, Badlapur - MPCB",08-04-2025 15:00,19.16485,73.23409,NH3,2,7,4
India,Maharashtra,Chandrapur,"Chauhan Colony, Chandrapur - MPCB",08-04-2025 15:00,19.9629,79.298714,OZONE,23,24,24
India,Maharashtra,Jalgaon,"Prabhat Colony, Jalgaon - MPCB",08-04-2025 15:00,21.001264,75.565602,PM2.5,61,161,96
India,Maharashtra,Jalgaon,"Prabhat Colony, Jalgaon - MPCB",08-04-2025 15:00,21.001264,75.565602,SO2,8,33,13
India,Maharashtra,Amravati,"Shivneri Colony, Amravati - MPCB",08-04-2025 15:00,20.9402359,77.7895248,CO,16,66,24
India,Maharashtra,Amravati,"Shri Shivaji Science College, Amaravati - MPCB",08-04-2025 15:00,20.939198,77.765701,PM10,57,133,98
India,Madhya Pradesh,Jabalpur,"Gupteshwar, Jabalpur - JMC",08-04-2025 15:00,23.142888,79.916147,NH3,2,4,3
India,Madhya Pradesh,Jabalpur,"Gupteshwar, Jabalpur - JMC",08-04-2025 15:00,23.142888,79.916147,SO2,12,15,14
India,Madhya Pradesh,Jabalpur,"Gupteshwar, Jabalpur - JMC",08-04-2025 15:00,23.142888,79.916147,CO,26,113,57
India,Maharashtra,Ahmednagar,"Tarakpur, Ahmednagar - MPCB",08-04-2025 15:00,19.10122,74.73339,NO2,2,127,64
India,Maharashtra,Mumbai,"Kherwadi_Bandra East, Mumbai - MPCB",08-04-2025 15:00,19.0632143,72.8456324,PM10,42,116,80
India,Maharashtra,Mumbai,"Kherwadi_Bandra East, Mumbai - MPCB",08-04-2025 15:00,19.0632143,72.8456324,NO2,17,220,69
India,Maharashtra,Mumbai,"Kherwadi_Bandra East, Mumbai - MPCB",08-04-2025 15:00,19.0632143,72.8456324,CO,12,28,23
India,Maharashtra,Mumbai,"Khindipada-Bhandup West, Mumbai - IITM",08-04-2025 15:00,19.1653323,72.922099,PM10,52,140,96
India,Maharashtra,Mumbai,"Khindipada-Bhandup West, Mumbai - IITM",08-04-2025 15:00,19.1653323,72.922099,NO2,1,57,15
India,Maharashtra,Mumbai,"Khindipada-Bhandup West, Mumbai - IITM",08-04-2025 15:00,19.1653323,72.922099,SO2,6,64,20
India,Maharashtra,Mumbai,"Khindipada-Bhandup West, Mumbai - IITM",08-04-2025 15:00,19.1653323,72.922099,CO,1,90,36
India,Maharashtra,Mumbai,"Kurla, Mumbai - MPCB",08-04-2025 15:00,19.0863,72.8888,NH3,1,2,1
India,Maharashtra,Mumbai,"Kurla, Mumbai - MPCB",08-04-2025 15:00,19.0863,72.8888,OZONE,28,29,28
India,Maharashtra,Mumbai,"Malad West, Mumbai - IITM",08-04-2025 15:00,19.19709,72.82204,PM2.5,6,120,59
India,Maharashtra,Mira-Bhayandar,"Bhayandar West, Mira-Bhayandar - MPCB",08-04-2025 15:00,19.296481,72.840923,NH3,NA,NA,NA
India,Maharashtra,Mumbai,"Bandra Kurla Complex, Mumbai - IITM",08-04-2025 15:00,19.053536,72.84643,PM2.5,71,150,101
India,Maharashtra,Mumbai,"Bandra Kurla Complex, Mumbai - IITM",08-04-2025 15:00,19.053536,72.84643,PM10,82,141,115
India,Maharashtra,Mumbai,"Bandra Kurla Complex, Mumbai - IITM",08-04-2025 15:00,19.053536,72.84643,SO2,2,5,4
India,Maharashtra,Mumbai,"Bandra Kurla Complex, Mumbai - MPCB",08-04-2025 15:00,19.065931,72.862131,PM10,NA,NA,NA
India,Maharashtra,Mumbai,"Colaba, Mumbai - MPCB",08-04-2025 15:00,18.91,72.82,CO,26,28,28
India,Maharashtra,Mumbai,"Deonar, Mumbai - IITM",08-04-2025 15:00,19.04946,72.923,PM10,118,256,166
India,Maharashtra,Mumbai,"Deonar, Mumbai - IITM",08-04-2025 15:00,19.04946,72.923,NO2,24,79,46
India,Maharashtra,Mumbai,"Ghatkopar, Mumbai - BMC",08-04-2025 15:00,19.083694,72.920967,OZONE,4,79,27
India,Maharashtra,Kolhapur,"Shivaji University, Kolhapur - MPCB",08-04-2025 15:00,16.6870449,74.2505872,PM2.5,NA,NA,NA
India,Maharashtra,Kolhapur,"Shivaji University, Kolhapur - MPCB",08-04-2025 15:00,16.6870449,74.2505872,CO,NA,NA,NA
India,Maharashtra,Kolhapur,"Sinchan Bhavan, Kolhapur - MPCB",08-04-2025 15:00,16.7143745,74.2426398,NH3,NA,NA,NA
India,Maharashtra,Latur,"Sawe Wadi, Latur - MPCB",08-04-2025 15:00,18.39963,76.57452,PM10,NA,NA,NA
India,Maharashtra,Mumbai,"Chembur, Mumbai - MPCB",08-04-2025 15:00,19.0364585,72.8954371,NH3,11,16,12
India,Maharashtra,Mumbai,"Chembur, Mumbai - MPCB",08-04-2025 15:00,19.0364585,72.8954371,SO2,4,121,28
India,Maharashtra,Mumbai,"Chembur, Mumbai - MPCB",08-04-2025 15:00,19.0364585,72.8954371,CO,30,62,48
India,Maharashtra,Mumbai,"Colaba, Mumbai - MPCB",08-04-2025 15:00,18.91,72.82,PM2.5,12,29,18
India,Maharashtra,Mumbai,"Borivali East, Mumbai - IITM",08-04-2025 15:00,19.23241,72.86895,NO2,27,142,65
India,Maharashtra,Mumbai,"Borivali East, Mumbai - IITM",08-04-2025 15:00,19.23241,72.86895,NH3,5,6,6
India,Maharashtra,Mumbai,"Byculla, Mumbai - BMC",08-04-2025 15:00,18.9767,72.838,PM2.5,25,75,47
India,Maharashtra,Kalyan,"Khadakpada, Kalyan - MPCB",08-04-2025 15:00,19.25292,73.142019,CO,6,12,9
India,Maharashtra,Kalyan,"Pimpleshwar Mandir, Kalyan - MPCB",08-04-2025 15:00,19.192056,72.9585188,PM10,64,88,75
India,Maharashtra,Kalyan,"Pimpleshwar Mandir, Kalyan - MPCB",08-04-2025 15:00,19.192056,72.9585188,CO,12,48,38
India,Maharashtra,Mahad,"Kamble Tarf Birwadi, Mahad - MPCB",08-04-2025 15:00,18.1023399,73.4783687,OZONE,7,74,26
India,Maharashtra,Malegaon,"Mahesh Nagar, Malegaon - MPCB",08-04-2025 15:00,20.555712,74.529236,PM2.5,39,312,212
India,Maharashtra,Jalna,"Old MIDC, Jalna - MPCB",08-04-2025 15:00,19.854616,75.905894,NO2,15,232,117
India,Maharashtra,Jalna,"Old MIDC, Jalna - MPCB",08-04-2025 15:00,19.854616,75.905894,SO2,1,2,1
India,Maharashtra,Mumbai,"Mazgaon, Mumbai - IITM",08-04-2025 15:00,18.96702,72.84214,NH3,5,9,7
India,Maharashtra,Mumbai,"Mindspace-Malad West, Mumbai - MPCB",08-04-2025 15:00,19.1878657,72.8304069,PM10,52,104,76
India,Maharashtra,Mumbai,"Mindspace-Malad West, Mumbai - MPCB",08-04-2025 15:00,19.1878657,72.8304069,NO2,12,91,32
India,Maharashtra,Mumbai,"Mindspace-Malad West, Mumbai - MPCB",08-04-2025 15:00,19.1878657,72.8304069,OZONE,6,111,28
India,Maharashtra,Mumbai,"Navy Nagar-Colaba, Mumbai - IITM",08-04-2025 15:00,18.897756,72.81332,SO2,3,77,27
India,Maharashtra,Mumbai,"Navy Nagar-Colaba, Mumbai - IITM",08-04-2025 15:00,18.897756,72.81332,OZONE,29,95,57
India,Maharashtra,Mumbai,"Powai, Mumbai - MPCB",08-04-2025 15:00,19.1375,72.915056,PM2.5,25,46,34
India,Maharashtra,Mumbai,"Vasai West, Mumbai - MPCB",08-04-2025 15:00,19.3832,72.8204,PM10,73,140,100
India,Maharashtra,Mumbai,"Vasai West, Mumbai - MPCB",08-04-2025 15:00,19.3832,72.8204,NO2,32,106,52
India,Maharashtra,Mumbai,"Vasai West, Mumbai - MPCB",08-04-2025 15:00,19.3832,72.8204,NH3,4,11,6
India,Maharashtra,Mumbai,"Vile Parle West, Mumbai - MPCB",08-04-2025 15:00,19.10861,72.83622,PM2.5,NA,NA,NA
India,Maharashtra,Mumbai,"Vile Parle West, Mumbai - MPCB",08-04-2025 15:00,19.10861,72.83622,PM10,65,156,97
India,Maharashtra,Mumbai,"Worli, Mumbai - MPCB",08-04-2025 15:00,18.9936162,72.8128113,PM2.5,63,73,67
India,Maharashtra,Mumbai,"Worli, Mumbai - MPCB",08-04-2025 15:00,18.9936162,72.8128113,NO2,NA,NA,NA
India,Maharashtra,Mumbai,"Worli, Mumbai - MPCB",08-04-2025 15:00,18.9936162,72.8128113,SO2,6,14,8
India,Maharashtra,Mumbai,"Worli, Mumbai - MPCB",08-04-2025 15:00,18.9936162,72.8128113,CO,6,24,13
India,Maharashtra,Nagpur,"Ambazari, Nagpur - MPCB",08-04-2025 15:00,21.121801,79.04952,PM10,103,149,128
India,Maharashtra,Nagpur,"Opp GPO Civil Lines, Nagpur - MPCB",08-04-2025 15:00,21.152875,79.0517531,SO2,18,70,37
India,Maharashtra,Nanded,"Sneh Nagar, Nanded - MPCB",08-04-2025 15:00,19.173852,77.296291,OZONE,1,122,43
India,Maharashtra,Nashik,"Gangapur Road, Nashik - MPCB",08-04-2025 15:00,20.0073285,73.7762427,NO2,3,29,14
India,Maharashtra,Nashik,"Gangapur Road, Nashik - MPCB",08-04-2025 15:00,20.0073285,73.7762427,NH3,3,10,6
India,Maharashtra,Nashik,"Gangapur Road, Nashik - MPCB",08-04-2025 15:00,20.0073285,73.7762427,CO,28,35,32
India,Maharashtra,Parbhani,"Masoom Colony, Parbhani - MPCB",08-04-2025 15:00,19.265594,76.761463,CO,8,64,57
India,Maharashtra,Parbhani,"Masoom Colony, Parbhani - MPCB",08-04-2025 15:00,19.265594,76.761463,OZONE,13,105,54
India,Maharashtra,Pimpri-Chinchwad,"Gavalinagar, Pimpri Chinchwad - MPCB",08-04-2025 15:00,18.63673,73.82487,NO2,27,68,51
India,Maharashtra,Nashik,"Pandav Nagari, Nashik - MPCB",08-04-2025 15:00,19.9591346,73.7788008,NO2,6,26,13
India,Maharashtra,Navi Mumbai,"Kopripada-Vashi, Navi Mumbai - MPCB",08-04-2025 15:00,19.090337,73.014232,CO,28,121,101
India,Maharashtra,Nashik,"Hirawadi, Nashik - MPCB",08-04-2025 15:00,20.021503,73.813844,PM2.5,48,106,69
India,Maharashtra,Nashik,"MIDC Ambad, Nashik - MPCB",08-04-2025 15:00,19.95022,73.73148,PM2.5,31,78,57
India,Maharashtra,Nashik,"MIDC Ambad, Nashik - MPCB",08-04-2025 15:00,19.95022,73.73148,NH3,2,4,3
India,Maharashtra,Mumbai,"Shivaji Nagar, Mumbai - BMC",08-04-2025 15:00,19.060498,72.923356,PM2.5,39,94,71
India,Maharashtra,Mumbai,"Shivaji Nagar, Mumbai - BMC",08-04-2025 15:00,19.060498,72.923356,PM10,99,161,129
India,Maharashtra,Mumbai,"Shivaji Nagar, Mumbai - BMC",08-04-2025 15:00,19.060498,72.923356,CO,8,58,46
India,Maharashtra,Navi Mumbai,"Sector-2E Kalamboli, Navi Mumbai - MPCB",08-04-2025 15:00,19.02579,73.10297,SO2,3,30,12
India,Maharashtra,Pune,"Mhada Colony, Pune - IITM",08-04-2025 15:00,18.57304,73.927715,CO,9,133,59
India,Maharashtra,Pune,"Panchawati_Pashan, Pune - IITM",08-04-2025 15:00,18.536457,73.805454,NO2,13,118,29
India,Maharashtra,Pune,"Revenue Colony-Shivajinagar, Pune - IITM",08-04-2025 15:00,18.530085,73.849598,PM10,107,206,144
India,Maharashtra,Pune,"Revenue Colony-Shivajinagar, Pune - IITM",08-04-2025 15:00,18.530085,73.849598,NO2,71,268,161
India,Maharashtra,Pune,"Revenue Colony-Shivajinagar, Pune - IITM",08-04-2025 15:00,18.530085,73.849598,SO2,7,32,18
India,Maharashtra,Pune,"Revenue Colony-Shivajinagar, Pune - IITM",08-04-2025 15:00,18.530085,73.849598,OZONE,1,107,26
India,Maharashtra,Pune,"Savitribai Phule Pune University, Pune - MPCB",08-04-2025 15:00,18.547056,73.826908,SO2,2,11,6
India,Maharashtra,Pune,"Transport Nagar-Nigdi, Pune - IITM",08-04-2025 15:00,18.664282,73.763966,OZONE,6,86,43
India,Maharashtra,Sangli,"Vijay Nagar, Sangli - MPCB",08-04-2025 15:00,16.5038,74.3623,PM2.5,31,305,126
India,Maharashtra,Sangli,"Vijay Nagar, Sangli - MPCB",08-04-2025 15:00,16.5038,74.3623,NH3,NA,NA,NA
India,Maharashtra,Solapur,"Dnyaneshwar Nagar, Solapur - MPCB",08-04-2025 15:00,17.6336264,75.9132495,OZONE,28,94,47
India,Maharashtra,Solapur,"Ratandeep Housing Society, Solapur - MPCB",08-04-2025 15:00,17.65439,75.90649,NO2,15,89,41
India,Odisha,Baripada,"Meher Colony, Baripada - OSPCB",08-04-2025 15:00,21.941841,86.728318,PM2.5,4,35,17
India,Odisha,Baripada,"Meher Colony, Baripada - OSPCB",08-04-2025 15:00,21.941841,86.728318,NH3,3,6,5
India,Odisha,Bhubaneswar,"Lingraj Mandir, Bhubaneswar - OSPCB",08-04-2025 15:00,20.24079,85.836784,PM2.5,8,37,18
India,Odisha,Bhubaneswar,"Lingraj Mandir, Bhubaneswar - OSPCB",08-04-2025 15:00,20.24079,85.836784,NO2,6,16,9
India,Odisha,Bhubaneswar,"Patia, Bhubaneswar - OSPCB",08-04-2025 15:00,20.34652,85.8163,PM2.5,3,33,12
India,Odisha,Bhubaneswar,"Patia, Bhubaneswar - OSPCB",08-04-2025 15:00,20.34652,85.8163,PM10,19,73,37
India,Maharashtra,Thane,"Upvan Fort, Thane - MPCB",08-04-2025 15:00,19.222279,72.957979,NO2,11,84,36
India,Maharashtra,Thane,"Upvan Fort, Thane - MPCB",08-04-2025 15:00,19.222279,72.957979,OZONE,4,144,46
India,Maharashtra,Ulhasnagar,"Sidhi Vinayak Nagar, Ulhasnagar - MPCB",08-04-2025 15:00,19.235581,73.159121,CO,11,139,32
India,Maharashtra,Ulhasnagar,"Sidhi Vinayak Nagar, Ulhasnagar - MPCB",08-04-2025 15:00,19.235581,73.159121,OZONE,4,238,191
India,Maharashtra,Virar,"Bolinj, Virar - MPCB",08-04-2025 15:00,19.445821,72.7988231,PM10,54,143,82
India,Odisha,Angul,"Hakimapada, Angul - OSPCB",08-04-2025 15:00,20.832874,85.104082,NO2,6,12,8
India,Odisha,Balasore,"Kalidaspur, Balasore - OSPCB",08-04-2025 15:00,21.51161,86.89088,NO2,3,16,10
India,Odisha,Barbil,"Forest Office, Barbil - OSPCB",08-04-2025 15:00,22.1166054,85.3945546,PM2.5,NA,NA,NA
India,Odisha,Barbil,"Forest Office, Barbil - OSPCB",08-04-2025 15:00,22.1166054,85.3945546,PM10,NA,NA,NA
India,Meghalaya,Shillong,"JN Stadium, Shillong - Meghalaya PCB",08-04-2025 15:00,25.5803419,91.8942571,CO,27,75,34
India,Meghalaya,Shillong,"Lumpyngngad, Shillong - Meghalaya PCB",08-04-2025 15:00,25.5586,91.8985,NO2,NA,NA,NA
India,Nagaland,Kohima,"PWD Juction, Kohima - NPCB",08-04-2025 15:00,25.6635413,94.0989878,NH3,1,1,1
India,Maharashtra,Solapur,"Ratandeep Housing Society, Solapur - MPCB",08-04-2025 15:00,17.65439,75.90649,SO2,2,18,6
India,Maharashtra,Solapur,"Solapur, Solapur - MPCB",08-04-2025 15:00,17.6599188,75.9063906,PM10,118,133,126
India,Maharashtra,Thane,"Kasarvadavali, Thane - MPCB",08-04-2025 15:00,19.26777,72.97182,OZONE,1,126,68
India,Maharashtra,Pune,"Katraj Dairy, Pune - MPCB",08-04-2025 15:00,18.45445,73.854155,NH3,2,11,5
India,Maharashtra,Pune,"Katraj Dairy, Pune - MPCB",08-04-2025 15:00,18.45445,73.854155,SO2,2,4,3
India,Maharashtra,Pune,"Bhumkar Nagar, Pune - IITM",08-04-2025 15:00,18.60577,73.749976,OZONE,1,114,50
India,Punjab,Khanna,"Kalal Majra, Khanna - PPCB",08-04-2025 15:00,30.736056,76.209694,OZONE,21,55,29
India,Punjab,Ludhiana,"Punjab Agricultural University, Ludhiana - PPCB",08-04-2025 15:00,30.9028,75.8086,PM2.5,62,500,239
India,Punjab,Ludhiana,"Punjab Agricultural University, Ludhiana - PPCB",08-04-2025 15:00,30.9028,75.8086,SO2,4,135,45
India,Punjab,Mandi Gobindgarh,"RIMT University, Mandi Gobindgarh - PPCB",08-04-2025 15:00,30.649961,76.331442,OZONE,46,52,49
India,Punjab,Patiala,"Model Town, Patiala - PPCB",08-04-2025 15:00,30.349388,76.366642,PM2.5,60,221,101
India,Punjab,Patiala,"Model Town, Patiala - PPCB",08-04-2025 15:00,30.349388,76.366642,SO2,8,35,15
India,Odisha,Tensa,"Barsua Iron Ore Mines, Tensa - OSPCB",08-04-2025 15:00,21.869985,85.167016,PM2.5,NA,NA,NA
India,Puducherry,Puducherry,"Jawahar Nagar, Puducherry - PPCC",08-04-2025 15:00,11.9309,79.8027,SO2,5,12,9
India,Puducherry,Puducherry,"Jawahar Nagar, Puducherry - PPCC",08-04-2025 15:00,11.9309,79.8027,OZONE,3,36,18
India,Punjab,Amritsar,"Golden Temple, Amritsar - PPCB",08-04-2025 15:00,31.62,74.876512,PM10,81,127,108
India,Punjab,Amritsar,"Golden Temple, Amritsar - PPCB",08-04-2025 15:00,31.62,74.876512,NO2,64,146,108
India,Odisha,Cuttack,"CDA Area, Cuttack - OSPCB",08-04-2025 15:00,20.48891,85.84768,NH3,1,2,1
India,Odisha,Cuttack,"CDA Area, Cuttack - OSPCB",08-04-2025 15:00,20.48891,85.84768,CO,87,100,92
India,Odisha,Nayagarh,"Dabuna, Nayagarh - OSPCB",08-04-2025 15:00,21.847279,85.416905,PM2.5,NA,NA,NA
India,Odisha,Nayagarh,"Dabuna, Nayagarh - OSPCB",08-04-2025 15:00,21.847279,85.416905,NO2,NA,NA,NA
India,Odisha,Rairangpur,"Divisional Forest Office, Rairangpur - OSPCB",08-04-2025 15:00,22.265816,86.174829,NO2,13,19,16
India,Odisha,Rairangpur,"Divisional Forest Office, Rairangpur - OSPCB",08-04-2025 15:00,22.265816,86.174829,CO,9,16,14
India,Odisha,Rourkela,"Raghunathpali, Rourkela - OSPCB",08-04-2025 15:00,22.220833,84.809444,PM2.5,42,304,159
India,Odisha,Rourkela,"Raghunathpali, Rourkela - OSPCB",08-04-2025 15:00,22.220833,84.809444,SO2,2,6,5
India,Odisha,Rourkela,"Sector-2, Rourkela - OSPCB",08-04-2025 15:00,22.245,84.88111111,PM10,43,96,61
India,Odisha,Suakati,"OMC Colony, Suakati - OSPCB",08-04-2025 15:00,21.606865,85.510538,NH3,4,4,4
India,Odisha,Suakati,"OMC Colony, Suakati - OSPCB",08-04-2025 15:00,21.606865,85.510538,CO,1,37,31
India,Odisha,Bhubaneswar,"Patia, Bhubaneswar - OSPCB",08-04-2025 15:00,20.34652,85.8163,OZONE,7,51,32
India,Odisha,Bileipada,"Tata Township, Bileipada - OSPCB",08-04-2025 15:00,22.06156703,85.47409613,PM10,14,100,34
India,Odisha,Bileipada,"Tata Township, Bileipada - OSPCB",08-04-2025 15:00,22.06156703,85.47409613,NO2,7,7,7
India,Odisha,Byasanagar,"Ferro Chrome Colony, Byasanagar - OSPCB",08-04-2025 15:00,20.94185,86.1151,SO2,1,4,2
India,Punjab,Amritsar,"Golden Temple, Amritsar - PPCB",08-04-2025 15:00,31.62,74.876512,NH3,9,18,13
India,Punjab,Amritsar,"Golden Temple, Amritsar - PPCB",08-04-2025 15:00,31.62,74.876512,CO,30,161,75
India,Punjab,Jalandhar,"Civil Line, Jalandhar - PPCB",08-04-2025 15:00,31.321907,75.578914,NO2,29,35,32
India,Punjab,Jalandhar,"Civil Line, Jalandhar - PPCB",08-04-2025 15:00,31.321907,75.578914,SO2,14,17,16
India,Rajasthan,Alwar,"Moti Doongri, Alwar - RSPCB",08-04-2025 15:00,27.554793,76.611536,OZONE,10,60,24
India,Rajasthan,Banswara,"Rati Talai, Banswara - RSPCB",08-04-2025 15:00,23.55519,74.44001,PM2.5,37,164,72
India,Rajasthan,Banswara,"Rati Talai, Banswara - RSPCB",08-04-2025 15:00,23.55519,74.44001,NO2,13,170,39
India,Punjab,Rupnagar,"Ratanpura, Rupnagar - Ambuja Cements",08-04-2025 15:00,31.0325454,76.5623046,NO2,13,20,16
India,Rajasthan,Ajmer,"Civil Lines,  Ajmer - RSPCB",08-04-2025 15:00,26.470859,74.646594,NO2,15,30,24
India,Rajasthan,Bundi,"New Colony, Bundi - RSPCB",08-04-2025 15:00,25.435774,75.644272,OZONE,1,94,63
India,Rajasthan,Chittorgarh,"Shastri Nagar, Chittorgarh - RSPCB",08-04-2025 15:00,24.892047,74.623527,PM10,48,264,121
India,Rajasthan,Chittorgarh,"Shastri Nagar, Chittorgarh - RSPCB",08-04-2025 15:00,24.892047,74.623527,NO2,6,100,40
India,Rajasthan,Chittorgarh,"Shastri Nagar, Chittorgarh - RSPCB",08-04-2025 15:00,24.892047,74.623527,NH3,3,10,6
India,Rajasthan,Dausa,"Khatikan Mohalla, Dausa - RSPCB",08-04-2025 15:00,26.895552,76.334753,PM2.5,36,137,81
India,Rajasthan,Dausa,"Khatikan Mohalla, Dausa - RSPCB",08-04-2025 15:00,26.895552,76.334753,SO2,11,21,15
India,Rajasthan,Dholpur,"Raja Ganj, Dholpur - RSPCB",08-04-2025 15:00,26.699557,77.898881,PM2.5,24,71,43
India,Rajasthan,Dholpur,"Raja Ganj, Dholpur - RSPCB",08-04-2025 15:00,26.699557,77.898881,OZONE,66,103,87
India,Rajasthan,Dungarpur,"Bhoiwada, Dungarpur - RSPCB",08-04-2025 15:00,23.837789,73.714926,PM2.5,20,77,41
India,Rajasthan,Dungarpur,"Bhoiwada, Dungarpur - RSPCB",08-04-2025 15:00,23.837789,73.714926,PM10,57,500,106
India,Rajasthan,Dungarpur,"Bhoiwada, Dungarpur - RSPCB",08-04-2025 15:00,23.837789,73.714926,SO2,4,10,6
India,Rajasthan,Dungarpur,"Bhoiwada, Dungarpur - RSPCB",08-04-2025 15:00,23.837789,73.714926,OZONE,24,94,59
India,Rajasthan,Hanumangarh,"Housing Board, Hanumangarh - RSPCB",08-04-2025 15:00,29.61075,74.283608,SO2,9,30,17
India,Rajasthan,Jaipur,"Adarsh Nagar, Jaipur - RSPCB",08-04-2025 15:00,26.902909,75.836858,PM10,76,130,101
India,Rajasthan,Bhiwadi,"Vasundhara Nagar_UIT, Bhiwadi - RSPCB",08-04-2025 15:00,28.207266,76.829265,NO2,15,87,48
India,Rajasthan,Bhiwadi,"Vasundhara Nagar_UIT, Bhiwadi - RSPCB",08-04-2025 15:00,28.207266,76.829265,SO2,6,54,25
India,Rajasthan,Bhiwadi,"Vasundhara Nagar_UIT, Bhiwadi - RSPCB",08-04-2025 15:00,28.207266,76.829265,CO,21,74,36
India,Rajasthan,Bhiwadi,"Vasundhara Nagar_UIT, Bhiwadi - RSPCB",08-04-2025 15:00,28.207266,76.829265,OZONE,52,215,129
India,Rajasthan,Bikaner,"MM Ground, Bikaner - RSPCB",08-04-2025 15:00,28.018792,73.292658,SO2,1,38,8
India,Rajasthan,Bundi,"New Colony, Bundi - RSPCB",08-04-2025 15:00,25.435774,75.644272,PM10,89,460,198
India,Rajasthan,Bundi,"New Colony, Bundi - RSPCB",08-04-2025 15:00,25.435774,75.644272,NH3,9,26,15
India,Rajasthan,Jaipur,"Sector-2 Murlipura, Jaipur - RSPCB",08-04-2025 15:00,26.960669,75.771817,OZONE,27,131,84
India,Rajasthan,Jaipur,"Shastri Nagar, Jaipur - RSPCB",08-04-2025 15:00,26.9502929,75.730943,PM10,109,175,125
India,Rajasthan,Jaisalmer,"Sadar Bazar, Jaisalmer - RSPCB",08-04-2025 15:00,26.912329,70.909168,NO2,1,86,11
India,Rajasthan,Jaisalmer,"Sadar Bazar, Jaisalmer - RSPCB",08-04-2025 15:00,26.912329,70.909168,CO,6,64,14
India,Rajasthan,Banswara,"Rati Talai, Banswara - RSPCB",08-04-2025 15:00,23.55519,74.44001,NH3,4,13,7
India,Rajasthan,Baran,"Bamboliya, Baran - RSPCB",08-04-2025 15:00,25.106006,76.469948,NO2,8,80,32
India,Rajasthan,Baran,"Bamboliya, Baran - RSPCB",08-04-2025 15:00,25.106006,76.469948,SO2,4,39,14
India,Rajasthan,Barmer,"Railway Colony, Barmer - RSPCB",08-04-2025 15:00,25.747299,71.393989,NO2,1,17,6
India,Rajasthan,Jalore,"Mudtra Sili, Jalore - RSPCB",08-04-2025 15:00,25.344694,72.626208,PM10,66,295,134
India,Rajasthan,Jalore,"Mudtra Sili, Jalore - RSPCB",08-04-2025 15:00,25.344694,72.626208,NO2,23,88,56
India,Rajasthan,Jhunjhunu,"Indra Nagar, Jhunjhunu - RSPCB",08-04-2025 15:00,28.108988,75.386577,NO2,11,137,37
India,Rajasthan,Jhunjhunu,"Indra Nagar, Jhunjhunu - RSPCB",08-04-2025 15:00,28.108988,75.386577,SO2,6,21,11
India,Rajasthan,Jaipur,"Mansarovar Sector-12, Jaipur - RSPCB",08-04-2025 15:00,26.843698,75.766894,OZONE,2,81,53
India,Rajasthan,Jaipur,"Police Commissionerate, Jaipur - RSPCB",08-04-2025 15:00,26.9164092,75.7994901,NH3,2,44,9
India,Rajasthan,Jaipur,"Police Commissionerate, Jaipur - RSPCB",08-04-2025 15:00,26.9164092,75.7994901,OZONE,10,69,47
India,Rajasthan,Bhiwadi,"RIICO Ind. Area III, Bhiwadi - RSPCB",08-04-2025 15:00,28.194909,76.862296,NO2,14,41,32
India,Rajasthan,Bhiwadi,"RIICO Ind. Area III, Bhiwadi - RSPCB",08-04-2025 15:00,28.194909,76.862296,SO2,1,43,12
India,Rajasthan,Bhiwadi,"RIICO Ind. Area III, Bhiwadi - RSPCB",08-04-2025 15:00,28.194909,76.862296,CO,14,107,45
India,Rajasthan,Bharatpur,"Krishna Nagar, Bharatpur - RSPCB",08-04-2025 15:00,27.215415,77.50873,NH3,3,8,6
India,Rajasthan,Bharatpur,"Krishna Nagar, Bharatpur - RSPCB",08-04-2025 15:00,27.215415,77.50873,CO,17,52,43
India,Rajasthan,Jodhpur,"Collectorate, Jodhpur - RSPCB",08-04-2025 15:00,26.268249,73.0193853,PM10,16,263,122
India,Rajasthan,Jodhpur,"Digari Kalan, Jodhpur - RSPCB",08-04-2025 15:00,26.29581,73.082283,PM2.5,27,128,57
India,Rajasthan,Jodhpur,"Digari Kalan, Jodhpur - RSPCB",08-04-2025 15:00,26.29581,73.082283,NO2,5,125,24
India,Rajasthan,Jodhpur,"Digari Kalan, Jodhpur - RSPCB",08-04-2025 15:00,26.29581,73.082283,OZONE,2,65,38
India,Rajasthan,Jodhpur,"Jhalamand, Jodhpur - RSPCB",08-04-2025 15:00,26.215415,73.070156,PM10,34,288,99
India,Rajasthan,Jodhpur,"Jhalamand, Jodhpur - RSPCB",08-04-2025 15:00,26.215415,73.070156,SO2,3,12,6
India,Rajasthan,Jodhpur,"Mandor, Jodhpur - RSPCB",08-04-2025 15:00,26.358805,73.047444,PM2.5,14,86,33
India,Rajasthan,Kota,"Dhanmandi, Kota - RSPCB",08-04-2025 15:00,25.16409,75.858137,SO2,5,111,17
India,Rajasthan,Kota,"Nayapura, Kota - RSPCB",08-04-2025 15:00,25.196024,75.855668,NO2,18,115,56
India,Rajasthan,Kota,"Nayapura, Kota - RSPCB",08-04-2025 15:00,25.196024,75.855668,SO2,2,16,7
India,Rajasthan,Kota,"Shrinath Puram, Kota - RSPCB",08-04-2025 15:00,25.14389,75.821256,PM10,36,173,105
India,Rajasthan,Kota,"Shrinath Puram, Kota - RSPCB",08-04-2025 15:00,25.14389,75.821256,NO2,12,24,17
India,Rajasthan,Kota,"Shrinath Puram, Kota - RSPCB",08-04-2025 15:00,25.14389,75.821256,SO2,2,31,10
India,Rajasthan,Nagaur,"Karni Colony, Nagaur - RSPCB",08-04-2025 15:00,27.213494,73.734444,NO2,7,48,21
India,Rajasthan,Sawai Madhopur,"Sahu Nagar, Sawai Madhopur - RSPCB",08-04-2025 15:00,26.031443,76.359327,PM2.5,54,345,115
India,Rajasthan,Sawai Madhopur,"Sahu Nagar, Sawai Madhopur - RSPCB",08-04-2025 15:00,26.031443,76.359327,NH3,8,31,20
India,Rajasthan,Sikar,"Radhakishan Pura, Sikar - RSPCB",08-04-2025 15:00,27.608912,75.153302,PM2.5,21,191,69
India,Rajasthan,Sikar,"Radhakishan Pura, Sikar - RSPCB",08-04-2025 15:00,27.608912,75.153302,NO2,8,91,26
India,Rajasthan,Sikar,"Radhakishan Pura, Sikar - RSPCB",08-04-2025 15:00,27.608912,75.153302,CO,12,89,24
India,Rajasthan,Sirohi,"Vedhaynath Colony, Sirohi - RSPCB",08-04-2025 15:00,24.885261,72.857549,NO2,6,42,14
India,TamilNadu,Ariyalur,"Keelapalur, Ariyalur - TNPCB",08-04-2025 15:00,11.06825,79.07033,NH3,1,1,1
India,TamilNadu,Chengalpattu,"Crescent University, Chengalpattu - TNPCB",08-04-2025 15:00,12.8777316,80.0834807,SO2,16,16,16
India,TamilNadu,Chennai,"Alandur Bus Depot, Chennai - CPCB",08-04-2025 15:00,12.9099161,80.1076538,PM10,16,22,17
India,TamilNadu,Chennai,"Alandur Bus Depot, Chennai - CPCB",08-04-2025 15:00,12.9099161,80.1076538,NO2,NA,NA,NA
India,TamilNadu,Chennai,"Alandur Bus Depot, Chennai - CPCB",08-04-2025 15:00,12.9099161,80.1076538,OZONE,1,118,62
India,Rajasthan,Jodhpur,"Mandor, Jodhpur - RSPCB",08-04-2025 15:00,26.358805,73.047444,NH3,3,6,4
India,Rajasthan,Jodhpur,"Mandor, Jodhpur - RSPCB",08-04-2025 15:00,26.358805,73.047444,SO2,6,18,8
India,Rajasthan,Jodhpur,"Mandor, Jodhpur - RSPCB",08-04-2025 15:00,26.358805,73.047444,CO,14,38,23
India,Rajasthan,Karauli,"Satyawati Vihar, Karauli - RSPCB",08-04-2025 15:00,26.506177,77.025989,PM2.5,16,62,36
India,Rajasthan,Karauli,"Satyawati Vihar, Karauli - RSPCB",08-04-2025 15:00,26.506177,77.025989,NO2,9,44,25
India,Rajasthan,Karauli,"Satyawati Vihar, Karauli - RSPCB",08-04-2025 15:00,26.506177,77.025989,NH3,3,16,10
India,Rajasthan,Karauli,"Satyawati Vihar, Karauli - RSPCB",08-04-2025 15:00,26.506177,77.025989,SO2,6,29,17
India,Rajasthan,Tonk,"Shastri Nagar, Tonk - RSPCB",08-04-2025 15:00,26.159933,75.780517,CO,NA,NA,NA
India,Rajasthan,Tonk,"Shastri Nagar, Tonk - RSPCB",08-04-2025 15:00,26.159933,75.780517,OZONE,1,61,3
India,Rajasthan,Udaipur,"Ashok Nagar, Udaipur - RSPCB",08-04-2025 15:00,24.5886166,73.6321397,CO,5,118,49
India,TamilNadu,Ariyalur,"Keelapalur, Ariyalur - TNPCB",08-04-2025 15:00,11.06825,79.07033,PM10,27,60,45
India,Rajasthan,Nagaur,"Karni Colony, Nagaur - RSPCB",08-04-2025 15:00,27.213494,73.734444,OZONE,8,77,51
India,Rajasthan,Pratapgarh,"Pragati Nagar, Pratapgarh - RSPCB",08-04-2025 15:00,24.041198,74.780702,OZONE,5,98,48
India,Rajasthan,Rajsamand,"Dhoinda, Rajsamand - RSPCB",08-04-2025 15:00,25.03636,73.883502,NO2,3,35,13
India,Rajasthan,Rajsamand,"Dhoinda, Rajsamand - RSPCB",08-04-2025 15:00,25.03636,73.883502,NH3,7,31,14
India,TamilNadu,Chennai,"Kodungaiyur, Chennai - TNPCB",08-04-2025 15:00,13.1278,80.2642,NH3,4,6,5
India,TamilNadu,Chennai,"Manali Village, Chennai - TNPCB",08-04-2025 15:00,13.1662,80.2584,PM2.5,2,233,41
India,TamilNadu,Chennai,"Manali Village, Chennai - TNPCB",08-04-2025 15:00,13.1662,80.2584,CO,22,72,47
India,TamilNadu,Chennai,"Manali, Chennai - CPCB",08-04-2025 15:00,13.164544,80.26285,PM2.5,14,84,33
India,TamilNadu,Chennai,"Manali, Chennai - CPCB",08-04-2025 15:00,13.164544,80.26285,CO,58,101,86
India,TamilNadu,Chennai,"Manali, Chennai - CPCB",08-04-2025 15:00,13.164544,80.26285,OZONE,10,24,21
India,TamilNadu,Chennai,"Perungudi, Chennai - TNPCB",08-04-2025 15:00,12.9533,80.2357,NH3,3,4,4
India,TamilNadu,Chennai,"Royapuram, Chennai - TNPCB",08-04-2025 15:00,13.1036,80.2909,NH3,2,5,3
India,TamilNadu,Nagapattinam,"Velippalayam, Nagapattinam - TNPCB",08-04-2025 15:00,10.798548,79.838212,NO2,5,5,5
India,TamilNadu,Nagapattinam,"Velippalayam, Nagapattinam - TNPCB",08-04-2025 15:00,10.798548,79.838212,CO,10,23,18
India,TamilNadu,Namakkal,"Ponnusamy Nagar, Namakkal - TNPCB",08-04-2025 15:00,11.273992,78.163545,NO2,NA,NA,NA
India,TamilNadu,Ooty,"Bombay Castel, Ooty - TNPCB",08-04-2025 15:00,11.4068288,76.7138973,NH3,15,17,17
India,TamilNadu,Ooty,"Bombay Castel, Ooty - TNPCB",08-04-2025 15:00,11.4068288,76.7138973,OZONE,5,6,5
India,TamilNadu,Palkalaiperur,"Bharathidasan University, Palkalaiperur - TNPCB",08-04-2025 15:00,10.681158,78.741746,SO2,8,9,9
India,TamilNadu,Perundurai,"SIPCOT Industrial Park, Perundurai - TNPCB",08-04-2025 15:00,11.258242,77.552761,PM2.5,9,50,27
India,TamilNadu,Perundurai,"SIPCOT Industrial Park, Perundurai - TNPCB",08-04-2025 15:00,11.258242,77.552761,PM10,18,96,41
India,TamilNadu,Perundurai,"SIPCOT Industrial Park, Perundurai - TNPCB",08-04-2025 15:00,11.258242,77.552761,OZONE,6,14,8
India,TamilNadu,Ramanathapuram,"Chalai Bazaar, Ramanathapuram - TNPCB",08-04-2025 15:00,9.36399,78.831977,NH3,1,1,1
India,TamilNadu,Ramanathapuram,"Chalai Bazaar, Ramanathapuram - TNPCB",08-04-2025 15:00,9.36399,78.831977,SO2,12,18,14
India,TamilNadu,Ranipet,"VOC Nagar_SIPCOT, Ranipet - TNPCB",08-04-2025 15:00,12.952707,79.30394,PM10,NA,NA,NA
India,TamilNadu,Kanchipuram,"Kilambi, Kanchipuram - TNPCB",08-04-2025 15:00,12.864618,79.659968,NH3,4,4,4
India,TamilNadu,Karur,"Kamadenu Nagar, Karur - TNPCB",08-04-2025 15:00,10.96782,78.080882,PM10,NA,NA,NA
India,TamilNadu,Karur,"Kamadenu Nagar, Karur - TNPCB",08-04-2025 15:00,10.96782,78.080882,NO2,NA,NA,NA
India,TamilNadu,Karur,"Kamadenu Nagar, Karur - TNPCB",08-04-2025 15:00,10.96782,78.080882,OZONE,24,51,38
India,TamilNadu,Madurai,"Uchapatti, Madurai - TNPCB",08-04-2025 15:00,9.865935,78.022669,NO2,16,20,19
India,TamilNadu,Madurai,"Uchapatti, Madurai - TNPCB",08-04-2025 15:00,9.865935,78.022669,NH3,2,3,3
India,TamilNadu,Thoothukudi,"Meelavittan, Thoothukudi - TNPCB",08-04-2025 15:00,8.816428,78.099039,CO,3,39,20
India,TamilNadu,Tirunelveli,"Municipal Corporation Office, Tirunelveli - TNPCB",08-04-2025 15:00,8.728442,77.6962,PM2.5,18,33,25
India,TamilNadu,Tirunelveli,"Municipal Corporation Office, Tirunelveli - TNPCB",08-04-2025 15:00,8.728442,77.6962,PM10,17,36,26
India,TamilNadu,Tirunelveli,"Municipal Corporation Office, Tirunelveli - TNPCB",08-04-2025 15:00,8.728442,77.6962,CO,28,30,29
India,TamilNadu,Tirupur,"Kumaran College, Tirupur - TNPCB",08-04-2025 15:00,11.0973603,77.3228673,SO2,NA,NA,NA
India,TamilNadu,Ranipet,"VOC Nagar_SIPCOT, Ranipet - TNPCB",08-04-2025 15:00,12.952707,79.30394,NH3,NA,NA,NA
India,TamilNadu,Ranipet,"VOC Nagar_SIPCOT, Ranipet - TNPCB",08-04-2025 15:00,12.952707,79.30394,OZONE,1,1,1
India,TamilNadu,Thanjavur,"Parisutham Nagar, Thanjavur - TNPCB",08-04-2025 15:00,10.7654824,79.1389968,PM2.5,13,44,25
India,TamilNadu,Thanjavur,"Parisutham Nagar, Thanjavur - TNPCB",08-04-2025 15:00,10.7654824,79.1389968,NO2,4,5,4
India,TamilNadu,Thanjavur,"Parisutham Nagar, Thanjavur - TNPCB",08-04-2025 15:00,10.7654824,79.1389968,SO2,16,17,16
India,TamilNadu,Vellore,"Vasanthapuram, Vellore - TNPCB",08-04-2025 15:00,12.909494,79.131861,PM10,24,111,49
India,TamilNadu,Vellore,"Vasanthapuram, Vellore - TNPCB",08-04-2025 15:00,12.909494,79.131861,NO2,1,13,6
India,TamilNadu,Vellore,"Vasanthapuram, Vellore - TNPCB",08-04-2025 15:00,12.909494,79.131861,SO2,13,16,16
India,Telangana,Hyderabad,"Bollaram Industrial Area, Hyderabad - TSPCB",08-04-2025 15:00,17.540891,78.358528,CO,5,98,39
India,TamilNadu,Coimbatore,"SIDCO Kurichi, Coimbatore - TNPCB",08-04-2025 15:00,10.942451,76.978996,NH3,NA,NA,NA
India,TamilNadu,Cuddalore,"Kudikadu, Cuddalore - TNPCB",08-04-2025 15:00,11.6829898,79.7532099,PM2.5,7,28,16
India,TamilNadu,Cuddalore,"Semmandalam, Cuddalore - TNPCB",08-04-2025 15:00,11.7637683,79.7499835,NH3,NA,NA,NA
India,TamilNadu,Hosur,"SIPCOT Phase-1, Hosur - TNPCB",08-04-2025 15:00,12.746998,77.813811,CO,18,22,22
India,TamilNadu,Madurai,"Uchapatti, Madurai - TNPCB",08-04-2025 15:00,9.865935,78.022669,CO,12,20,13
India,Telangana,Hyderabad,"IDA Pashamylaram, Hyderabad - TSPCB",08-04-2025 15:00,17.5316895,78.218939,PM10,50,157,97
India,Telangana,Hyderabad,"IDA Pashamylaram, Hyderabad - TSPCB",08-04-2025 15:00,17.5316895,78.218939,NO2,29,58,39
India,Telangana,Hyderabad,"IDA Pashamylaram, Hyderabad - TSPCB",08-04-2025 15:00,17.5316895,78.218939,NH3,1,2,1
India,Telangana,Hyderabad,"IITH Kandi, Hyderabad - TSPCB",08-04-2025 15:00,17.585705,78.126199,NO2,16,18,17
India,Telangana,Hyderabad,"IITH Kandi, Hyderabad - TSPCB",08-04-2025 15:00,17.585705,78.126199,NH3,2,2,2
India,Telangana,Hyderabad,"IITH Kandi, Hyderabad - TSPCB",08-04-2025 15:00,17.585705,78.126199,OZONE,35,39,36
India,Telangana,Hyderabad,"Kokapet, Hyderabad - TSPCB",08-04-2025 15:00,17.393559,78.339194,NO2,13,16,13
India,Telangana,Hyderabad,"Kompally Municipal Office, Hyderabad - TSPCB",08-04-2025 15:00,17.544899,78.486949,PM2.5,NA,NA,NA
India,Telangana,Hyderabad,"Sanathnagar, Hyderabad - TSPCB",08-04-2025 15:00,17.4559458,78.4332152,PM2.5,NA,NA,NA
India,Telangana,Hyderabad,"Sanathnagar, Hyderabad - TSPCB",08-04-2025 15:00,17.4559458,78.4332152,CO,23,88,68
India,Telangana,Hyderabad,"Somajiguda, Hyderabad - TSPCB",08-04-2025 15:00,17.417094,78.457437,SO2,NA,NA,NA
India,Telangana,Hyderabad,"Somajiguda, Hyderabad - TSPCB",08-04-2025 15:00,17.417094,78.457437,OZONE,11,32,18
India,Telangana,Hyderabad,"Zoo Park, Hyderabad - TSPCB",08-04-2025 15:00,17.349694,78.451437,NO2,67,140,97
India,Telangana,Hyderabad,"Zoo Park, Hyderabad - TSPCB",08-04-2025 15:00,17.349694,78.451437,SO2,2,12,7
India,Telangana,Hyderabad,"Zoo Park, Hyderabad - TSPCB",08-04-2025 15:00,17.349694,78.451437,OZONE,21,27,23
India,Telangana,Hyderabad,"Central University, Hyderabad - TSPCB",08-04-2025 15:00,17.460103,78.334361,NH3,3,7,6
India,Telangana,Hyderabad,"ECIL Kapra, Hyderabad - TSPCB",08-04-2025 15:00,17.470431,78.566959,PM2.5,NA,NA,NA
India,Telangana,Hyderabad,"ECIL Kapra, Hyderabad - TSPCB",08-04-2025 15:00,17.470431,78.566959,PM10,NA,NA,NA
India,Telangana,Hyderabad,"ICRISAT Patancheru, Hyderabad - TSPCB",08-04-2025 15:00,17.5184,78.278777,NH3,1,14,2
India,Telangana,Hyderabad,"ICRISAT Patancheru, Hyderabad - TSPCB",08-04-2025 15:00,17.5184,78.278777,SO2,2,17,13
India,Telangana,Hyderabad,"IDA Pashamylaram, Hyderabad - TSPCB",08-04-2025 15:00,17.5316895,78.218939,PM2.5,28,161,60
India,Uttar_Pradesh,Agra,"Rohta, Agra - UPPCB",08-04-2025 15:00,27.106972,78.000111,OZONE,7,14,10
India,Uttar_Pradesh,Agra,"Sanjay Palace, Agra - UPPCB",08-04-2025 15:00,27.19865833,78.00598056,PM2.5,26,303,114
India,Uttar_Pradesh,Agra,"Sanjay Palace, Agra - UPPCB",08-04-2025 15:00,27.19865833,78.00598056,NO2,12,93,29
India,Uttar_Pradesh,Agra,"Sanjay Palace, Agra - UPPCB",08-04-2025 15:00,27.19865833,78.00598056,CO,23,26,25
India,Uttar_Pradesh,Agra,"Sector-3B Avas Vikas Colony, Agra - UPPCB",08-04-2025 15:00,27.19412,77.96237,SO2,20,25,21
India,Uttar_Pradesh,Agra,"Sector-3B Avas Vikas Colony, Agra - UPPCB",08-04-2025 15:00,27.19412,77.96237,CO,22,37,29
India,Uttar_Pradesh,Firozabad,"Vibhab Nagar, Firozabad - UPPCB",08-04-2025 15:00,27.1594,78.3953,PM10,47,156,92
India,Uttar_Pradesh,Firozabad,"Vibhab Nagar, Firozabad - UPPCB",08-04-2025 15:00,27.1594,78.3953,OZONE,2,136,19
India,Uttar_Pradesh,Ghaziabad,"Indirapuram, Ghaziabad - UPPCB",08-04-2025 15:00,28.646233,77.358075,NO2,16,144,51
India,Uttar_Pradesh,Ghaziabad,"Indirapuram, Ghaziabad - UPPCB",08-04-2025 15:00,28.646233,77.358075,OZONE,6,97,56
India,Uttar_Pradesh,Ghaziabad,"Loni, Ghaziabad - UPPCB",08-04-2025 15:00,28.757294,77.278792,PM10,117,304,210
India,Uttar_Pradesh,Ghaziabad,"Loni, Ghaziabad - UPPCB",08-04-2025 15:00,28.757294,77.278792,CO,23,87,63
India,Uttar_Pradesh,Bareilly,"Rajendra Nagar, Bareilly - UPPCB",08-04-2025 15:00,28.38910936,79.42963708,PM10,60,224,108
India,Uttar_Pradesh,Bareilly,"Rajendra Nagar, Bareilly - UPPCB",08-04-2025 15:00,28.38910936,79.42963708,NH3,1,4,1
India,Uttar_Pradesh,Bulandshahr,"Yamunapuram, Bulandshahr - UPPCB",08-04-2025 15:00,28.406963,77.849831,OZONE,28,102,47
India,Uttar_Pradesh,Firozabad,"Nagla Bhau, Firozabad - UPPCB",08-04-2025 15:00,27.168897,78.37696,PM2.5,18,55,37
India,Uttar_Pradesh,Firozabad,"Nagla Bhau, Firozabad - UPPCB",08-04-2025 15:00,27.168897,78.37696,PM10,44,108,77
India,Uttar_Pradesh,Agra,"Shastripuram, Agra - UPPCB",08-04-2025 15:00,27.19862,77.92066,CO,13,27,16
India,Uttar_Pradesh,Baghpat,"Sardar Patel Inter College, Baghpat - UPPCB",08-04-2025 15:00,28.964949,77.278761,PM2.5,48,293,199
India,Uttar_Pradesh,Baghpat,"Sardar Patel Inter College, Baghpat - UPPCB",08-04-2025 15:00,28.964949,77.278761,PM10,78,304,224
India,Uttar_Pradesh,Bareilly,"Civil Lines, Bareilly - UPPCB",08-04-2025 15:00,28.359581,79.414455,NH3,1,2,1
India,Telangana,Hyderabad,"Kompally Municipal Office, Hyderabad - TSPCB",08-04-2025 15:00,17.544899,78.486949,SO2,NA,NA,NA
India,Telangana,Hyderabad,"Kompally Municipal Office, Hyderabad - TSPCB",08-04-2025 15:00,17.544899,78.486949,CO,22,26,23
India,Telangana,Hyderabad,"New Malakpet, Hyderabad - TSPCB",08-04-2025 15:00,17.37206,78.50864,NO2,16,18,18
India,Uttar_Pradesh,Agra,"Manoharpur, Agra - UPPCB",08-04-2025 15:00,27.23711,78.01936,PM2.5,22,102,57
India,Uttar_Pradesh,Agra,"Manoharpur, Agra - UPPCB",08-04-2025 15:00,27.23711,78.01936,CO,6,18,14
India,Uttar_Pradesh,Kanpur,"FTI Kidwai Nagar, Kanpur - UPPCB",08-04-2025 15:00,26.428282,80.327067,NO2,16,17,17
India,Uttar_Pradesh,Kanpur,"NSI Kalyanpur, Kanpur - UPPCB",08-04-2025 15:00,26.509954,80.249612,SO2,2,30,15
India,Uttar_Pradesh,Kanpur,"Nehru Nagar, Kanpur - UPPCB",08-04-2025 15:00,26.4703136,80.3229863,PM2.5,57,172,118
India,Uttar_Pradesh,Kanpur,"Nehru Nagar, Kanpur - UPPCB",08-04-2025 15:00,26.4703136,80.3229863,NO2,47,79,61
India,Uttar_Pradesh,Ghaziabad,"Sanjay Nagar, Ghaziabad - UPPCB",08-04-2025 15:00,28.685382,77.453839,NO2,NA,NA,NA
India,Uttar_Pradesh,Ghaziabad,"Sanjay Nagar, Ghaziabad - UPPCB",08-04-2025 15:00,28.685382,77.453839,OZONE,15,134,102
India,Uttar_Pradesh,Gorakhpur,"Madan Mohan Malaviya University of Technology, Gorakhpur - UPPCB",08-04-2025 15:00,26.730136,83.433859,PM2.5,45,500,97
India,Uttar_Pradesh,Moradabad,"Buddhi Vihar, Moradabad - UPPCB",08-04-2025 15:00,28.83526,78.7446,PM2.5,17,79,49
India,Uttar_Pradesh,Moradabad,"Buddhi Vihar, Moradabad - UPPCB",08-04-2025 15:00,28.83526,78.7446,CO,32,74,40
India,Uttar_Pradesh,Moradabad,"Buddhi Vihar, Moradabad - UPPCB",08-04-2025 15:00,28.83526,78.7446,OZONE,10,62,24
India,Uttar_Pradesh,Moradabad,"Eco Herbal Park, Moradabad - UPPCB",08-04-2025 15:00,28.840739,78.697531,PM2.5,28,96,63
India,Uttar_Pradesh,Moradabad,"Employment Office, Moradabad - UPPCB",08-04-2025 15:00,28.88528,78.7388,PM2.5,33,96,62
India,Uttar_Pradesh,Moradabad,"Jigar Colony, Moradabad - UPPCB",08-04-2025 15:00,28.856664,78.772638,PM10,66,137,110
India,Uttar_Pradesh,Moradabad,"Jigar Colony, Moradabad - UPPCB",08-04-2025 15:00,28.856664,78.772638,NH3,6,24,7
India,Uttar_Pradesh,Lucknow,"Kendriya Vidyalaya, Lucknow - CPCB",08-04-2025 15:00,26.906111,80.948222,NO2,36,51,45
India,Uttar_Pradesh,Lucknow,"Kendriya Vidyalaya, Lucknow - CPCB",08-04-2025 15:00,26.906111,80.948222,SO2,3,27,14
India,Uttar_Pradesh,Lucknow,"Lalbagh, Lucknow - CPCB",08-04-2025 15:00,26.8458805,80.9365541,NO2,44,92,59
India,Uttar_Pradesh,Greater Noida,"Knowledge Park - III, Greater Noida - UPPCB",08-04-2025 15:00,28.47272,77.482,SO2,5,31,21
India,Uttar_Pradesh,Greater Noida,"Knowledge Park - V, Greater Noida - UPPCB",08-04-2025 15:00,28.557054,77.453663,PM2.5,203,500,367
India,Uttar_Pradesh,Khurja,"Kalindi Kunj, Khurja - UPPCB",08-04-2025 15:00,28.2348927,77.8683002,OZONE,4,63,9
India,Uttar_Pradesh,Lucknow,"Gomti Nagar, Lucknow - UPPCB",08-04-2025 15:00,26.86812,81.005119,PM10,55,129,102
India,Uttar_Pradesh,Meerut,"Jai Bhim Nagar, Meerut - UPPCB",08-04-2025 15:00,28.9535882,77.7622941,NH3,9,91,19
India,Uttar_Pradesh,Meerut,"Jai Bhim Nagar, Meerut - UPPCB",08-04-2025 15:00,28.9535882,77.7622941,SO2,5,17,9
India,Uttar_Pradesh,Meerut,"Jai Bhim Nagar, Meerut - UPPCB",08-04-2025 15:00,28.9535882,77.7622941,CO,22,74,47
India,Uttar_Pradesh,Hapur,"Anand Vihar, Hapur - UPPCB",08-04-2025 15:00,28.725645,77.749675,OZONE,3,85,18
India,West_Bengal,Asansol,"Trivenidevi Bhalotia College, Asansol - WBPCB",08-04-2025 15:00,23.616515,87.119133,PM2.5,5,67,38
India,West_Bengal,Asansol,"Trivenidevi Bhalotia College, Asansol - WBPCB",08-04-2025 15:00,23.616515,87.119133,NH3,1,2,2
India,West_Bengal,Asansol,"Trivenidevi Bhalotia College, Asansol - WBPCB",08-04-2025 15:00,23.616515,87.119133,SO2,7,17,11
India,West_Bengal,Asansol,"Trivenidevi Bhalotia College, Asansol - WBPCB",08-04-2025 15:00,23.616515,87.119133,OZONE,7,69,22
India,West_Bengal,Barrackpore,"SVSPA Campus, Barrackpore - WBPCB",08-04-2025 15:00,22.7605581,88.3617589,CO,55,68,60
India,West_Bengal,Barrackpore,"SVSPA Campus, Barrackpore - WBPCB",08-04-2025 15:00,22.7605581,88.3617589,OZONE,4,33,13
India,West_Bengal,Durgapur,"Mahishkapur Road_B-Zone, Durgapur - WBPCB",08-04-2025 15:00,23.567923,87.306843,PM10,47,102,71
India,Uttarakhand,Dehradun,"Doon University, Dehradun - UKPCB",08-04-2025 15:00,30.269444,78.044167,OZONE,67,178,154
India,Uttarakhand,Kashipur,"Govt. Girls Inter College, Kashipur - UKPCB",08-04-2025 15:00,29.2124114,78.9611753,SO2,6,8,7
India,Uttarakhand,Rishikesh,"Shivaji Nagar, Rishikesh - UKPCB",08-04-2025 15:00,30.075911,78.2859547,PM10,83,137,104
India,Uttarakhand,Rishikesh,"Shivaji Nagar, Rishikesh - UKPCB",08-04-2025 15:00,30.075911,78.2859547,NO2,10,19,14
India,West_Bengal,Asansol,"Asansol Court Area, Asansol - WBPCB",08-04-2025 15:00,23.685297,86.945968,NO2,15,27,21
India,Uttar_Pradesh,Varanasi,"Ardhali Bazar, Varanasi - UPPCB",08-04-2025 15:00,25.3505986,82.9083074,CO,5,20,9
India,Uttar_Pradesh,Varanasi,"Ardhali Bazar, Varanasi - UPPCB",08-04-2025 15:00,25.3505986,82.9083074,OZONE,21,45,35
India,Uttar_Pradesh,Varanasi,"Bhelupur, Varanasi - UPPCB",08-04-2025 15:00,25.301778,82.996789,CO,10,33,14
India,Uttar_Pradesh,Varanasi,"IESD Banaras Hindu University, Varanasi - UPPCB",08-04-2025 15:00,25.262326,82.995408,PM2.5,41,88,66
India,Uttar_Pradesh,Noida,"Sector-1, Noida - UPPCB",08-04-2025 15:00,28.5898,77.3101,NH3,7,14,10
India,Uttar_Pradesh,Noida,"Sector-1, Noida - UPPCB",08-04-2025 15:00,28.5898,77.3101,SO2,18,42,25
India,Uttar_Pradesh,Noida,"Sector-116, Noida - UPPCB",08-04-2025 15:00,28.56923,77.393848,NH3,11,23,16
India,Uttar_Pradesh,Prayagraj,"Jhunsi, Prayagraj - UPPCB",08-04-2025 15:00,25.425602,81.917152,PM2.5,39,90,64
India,Uttar_Pradesh,Moradabad,"Kashiram Nagar, Moradabad - UPPCB",08-04-2025 15:00,28.849399,78.742362,NH3,4,4,4
India,Uttar_Pradesh,Moradabad,"Transport Nagar, Moradabad - UPPCB",08-04-2025 15:00,28.802625,78.753728,PM10,45,123,86
India,Uttar_Pradesh,Muzaffarnagar,"New Mandi, Muzaffarnagar - UPPCB",08-04-2025 15:00,29.4723508,77.7194031,PM2.5,55,257,128
India,Uttar_Pradesh,Prayagraj,"Jhunsi, Prayagraj - UPPCB",08-04-2025 15:00,25.425602,81.917152,OZONE,16,75,32
India,Uttar_Pradesh,Prayagraj,"Motilal Nehru NIT, Prayagraj - UPPCB",08-04-2025 15:00,25.494,81.863,NH3,2,5,3
India,Uttar_Pradesh,Varanasi,"Ardhali Bazar, Varanasi - UPPCB",08-04-2025 15:00,25.3505986,82.9083074,PM10,45,94,57
India,West_Bengal,Asansol,"Evelyn Lodge, Asansol - WBPCB",08-04-2025 15:00,23.697936,86.944395,SO2,3,8,4
India,West_Bengal,Asansol,"Evelyn Lodge, Asansol - WBPCB",08-04-2025 15:00,23.697936,86.944395,OZONE,6,53,19
India,West_Bengal,Asansol,"Mahabir Colliery, Asansol - WBPCB",08-04-2025 15:00,23.618183,87.105718,SO2,5,34,11
India,West_Bengal,Asansol,"Mahabir Colliery, Asansol - WBPCB",08-04-2025 15:00,23.618183,87.105718,OZONE,12,68,24
India,West_Bengal,Durgapur,"PCBL Residential Complex, Durgapur - WBPCB",08-04-2025 15:00,23.508764,87.35444,PM2.5,13,60,37
India,West_Bengal,Durgapur,"PCBL Residential Complex, Durgapur - WBPCB",08-04-2025 15:00,23.508764,87.35444,CO,53,114,72
India,Uttar_Pradesh,Vrindavan,"Omex Eternity, Vrindavan - UPPCB",08-04-2025 15:00,27.571409,77.655757,NO2,12,12,12
India,Uttar_Pradesh,Vrindavan,"Omex Eternity, Vrindavan - UPPCB",08-04-2025 15:00,27.571409,77.655757,OZONE,11,12,12
India,West_Bengal,Haldia,"Priyambada Housing Estate, Haldia - WBPCB",08-04-2025 15:00,22.06047,88.109737,CO,22,28,25
India,West_Bengal,Howrah,"Belur Math, Howrah - WBPCB",08-04-2025 15:00,22.629801,88.352017,NO2,34,36,35
India,West_Bengal,Howrah,"Belur Math, Howrah - WBPCB",08-04-2025 15:00,22.629801,88.352017,CO,2,6,4
India,West_Bengal,Howrah,"Botanical Garden, Howrah - WBPCB",08-04-2025 15:00,22.554954,88.292568,PM2.5,12,35,24
India,West_Bengal,Howrah,"Botanical Garden, Howrah - WBPCB",08-04-2025 15:00,22.554954,88.292568,NO2,6,20,11
India,West_Bengal,Howrah,"Botanical Garden, Howrah - WBPCB",08-04-2025 15:00,22.554954,88.292568,SO2,NA,NA,NA
India,West_Bengal,Howrah,"Dasnagar, Howrah - WBPCB",08-04-2025 15:00,22.6025571,88.3105664,NO2,7,17,12
India,West_Bengal,Howrah,"Dasnagar, Howrah - WBPCB",08-04-2025 15:00,22.6025571,88.3105664,OZONE,51,93,73
India,West_Bengal,Howrah,"Ghusuri, Howrah - WBPCB",08-04-2025 15:00,22.611968,88.347422,NO2,21,27,24
India,West_Bengal,Howrah,"Padmapukur, Howrah - WBPCB",08-04-2025 15:00,22.5687319,88.2797276,OZONE,12,37,27
India,West_Bengal,Kolkata,"Bidhannagar, Kolkata - WBPCB",08-04-2025 15:00,22.58157048,88.41002457,NO2,14,16,14
India,West_Bengal,Kolkata,"Rabindra Bharati University, Kolkata - WBPCB",08-04-2025 15:00,22.627847,88.380669,OZONE,25,85,49
India,West_Bengal,Kolkata,"Rabindra Sarobar, Kolkata - WBPCB",08-04-2025 15:00,22.51106,88.35142,NH3,4,5,5
India,West_Bengal,Kolkata,"Victoria, Kolkata - WBPCB",08-04-2025 15:00,22.5448082,88.3403691,SO2,3,10,7
India,West_Bengal,Kolkata,"Victoria, Kolkata - WBPCB",08-04-2025 15:00,22.5448082,88.3403691,CO,12,38,24
India,West_Bengal,Kolkata,"Victoria, Kolkata - WBPCB",08-04-2025 15:00,22.5448082,88.3403691,OZONE,22,50,32
India,Bihar,Arrah,"New DM Office, Arrah - BSPCB",08-04-2025 15:00,25.5626095,84.663264,PM10,70,111,86
India,Bihar,Arrah,"New DM Office, Arrah - BSPCB",08-04-2025 15:00,25.5626095,84.663264,NO2,5,9,7
India,Bihar,Arrah,"New DM Office, Arrah - BSPCB",08-04-2025 15:00,25.5626095,84.663264,CO,10,30,22
India,Bihar,Aurangabad,"Gurdeo Nagar, Aurangabad - BSPCB",08-04-2025 15:00,24.75746,84.366208,PM2.5,38,257,146
India,Bihar,Aurangabad,"Gurdeo Nagar, Aurangabad - BSPCB",08-04-2025 15:00,24.75746,84.366208,SO2,9,14,12
India,Bihar,Aurangabad,"Gurdeo Nagar, Aurangabad - BSPCB",08-04-2025 15:00,24.75746,84.366208,CO,6,47,22
India,Bihar,Begusarai,"Lohiyanagar, Begusarai - BSPCB",08-04-2025 15:00,25.42742023,86.13886079,NH3,NA,NA,NA
India,Andhra_Pradesh,Vijayawada,"HB Colony, Vijayawada - APPCB",08-04-2025 15:00,16.536107,80.594233,NH3,4,6,5
India,Andhra_Pradesh,Vijayawada,"HB Colony, Vijayawada - APPCB",08-04-2025 15:00,16.536107,80.594233,CO,16,34,21
India,Andhra_Pradesh,Vijayawada,"Kanuru, Vijayawada - APPCB",08-04-2025 15:00,16.486692,80.699436,CO,39,46,42
India,Andhra_Pradesh,Vijayawada,"Rajiv Gandhi Park, Vijayawada - APPCB",08-04-2025 15:00,16.509717,80.612222,PM2.5,47,404,87
India,Andhra_Pradesh,Vijayawada,"Rajiv Gandhi Park, Vijayawada - APPCB",08-04-2025 15:00,16.509717,80.612222,PM10,52,391,90
India,Andaman and Nicobar,Sri Vijaya Puram,"Police Line, Sri Vijaya Puram - ANPCC",08-04-2025 15:00,11.654054,92.734055,CO,12,59,17
India,Andhra_Pradesh,Amaravati,"Secretariat, Amaravati - APPCB",08-04-2025 15:00,16.5150833,80.5181667,PM10,NA,NA,NA
India,Andhra_Pradesh,Amaravati,"Secretariat, Amaravati - APPCB",08-04-2025 15:00,16.5150833,80.5181667,OZONE,18,71,42
India,Andhra_Pradesh,Anantapur,"Gulzarpet, Anantapur - APPCB",08-04-2025 15:00,14.675886,77.593027,PM10,NA,NA,NA
India,Andhra_Pradesh,Rajamahendravaram,"Anand Kala Kshetram, Rajamahendravaram - APPCB",08-04-2025 15:00,16.9872867,81.7363176,CO,14,78,25
India,Andhra_Pradesh,Tirumala,"Toll Gate, Tirumala - APPCB (Formerly known as Tirumala, Tirupati - APPCB)",08-04-2025 15:00,13.67,79.35,PM2.5,34,61,46
India,Andhra_Pradesh,Tirupati,"Vaikuntapuram, Tirupati - APPCB",08-04-2025 15:00,13.615387,79.40923,PM2.5,37,427,108
India,Assam,Guwahati,"LGBI Airport, Guwahati - PCBA",08-04-2025 15:00,26.10887,91.589544,NO2,17,20,19
India,Assam,Guwahati,"LGBI Airport, Guwahati - PCBA",08-04-2025 15:00,26.10887,91.589544,CO,19,47,21
India,Assam,Guwahati,"Railway Colony, Guwahati - PCBA",08-04-2025 15:00,26.181742,91.78063,PM2.5,87,334,227
India,Bihar,Bhagalpur,"DM Office_Kachari Chowk, Bhagalpur - BSPCB",08-04-2025 15:00,25.251013,86.989001,PM2.5,23,62,42
India,Bihar,Bhagalpur,"DM Office_Kachari Chowk, Bhagalpur - BSPCB",08-04-2025 15:00,25.251013,86.989001,OZONE,12,54,19
India,Bihar,Bhagalpur,"Mayaganj, Bhagalpur - BSPCB",08-04-2025 15:00,25.265194,87.012947,PM2.5,8,180,79
India,Andhra_Pradesh,Chittoor,"Gangineni Cheruvu, Chittoor - APPCB",08-04-2025 15:00,13.20488,79.097889,SO2,5,8,6
India,Andhra_Pradesh,Kadapa,"Yerramukkapalli, Kadapa - APPCB",08-04-2025 15:00,14.465052,78.824187,NO2,11,19,14
India,Assam,Nagaon,"Christianpatty, Nagaon - PCBA",08-04-2025 15:00,26.349082,92.68449,PM2.5,17,113,70
India,Assam,Nalbari,"Bata Chowk, Nalbari - PCBA",08-04-2025 15:00,26.446912,91.439057,CO,20,49,34
India,Assam,Sivasagar,"Girls College, Sivasagar - PCBA",08-04-2025 15:00,26.987634,94.636574,NO2,22,55,39
India,Bihar,Araria,"Kharahiya Basti, Araria - BSPCB",08-04-2025 15:00,26.146529,87.454184,CO,24,51,27
India,Andhra_Pradesh,Vijayawada,"Rajiv Nagar, Vijayawada - APPCB",08-04-2025 15:00,16.554731,80.64911,CO,34,47,37
India,Andhra_Pradesh,Vijayawada,"Rajiv Nagar, Vijayawada - APPCB",08-04-2025 15:00,16.554731,80.64911,OZONE,30,63,48
India,Bihar,Munger,"Town Hall, Munger - BSPCB",08-04-2025 15:00,25.376776,86.471523,PM10,67,139,103
India,Bihar,Muzaffarpur,"Buddha Colony, Muzaffarpur - BSPCB",08-04-2025 15:00,26.11442,85.39813,PM2.5,65,119,88
India,Bihar,Muzaffarpur,"Buddha Colony, Muzaffarpur - BSPCB",08-04-2025 15:00,26.11442,85.39813,SO2,4,17,8
India,Bihar,Muzaffarpur,"Buddha Colony, Muzaffarpur - BSPCB",08-04-2025 15:00,26.11442,85.39813,CO,22,41,27
India,Bihar,Muzaffarpur,"MIT-Daudpur Kothi, Muzaffarpur - BSPCB",08-04-2025 15:00,26.1403345,85.3650192,CO,48,74,66
India,Bihar,Muzaffarpur,"MIT-Daudpur Kothi, Muzaffarpur - BSPCB",08-04-2025 15:00,26.1403345,85.3650192,OZONE,9,51,24
India,Bihar,Muzaffarpur,"Muzaffarpur Collectorate, Muzaffarpur - BSPCB",08-04-2025 15:00,26.1209,85.3647,OZONE,32,81,42
India,Bihar,Patna,"DRM Office Danapur, Patna - BSPCB",08-04-2025 15:00,25.586562,85.043586,OZONE,14,41,19
India,Bihar,Patna,"Govt. High School Shikarpur, Patna - BSPCB",08-04-2025 15:00,25.592539,85.227158,NO2,5,7,6
India,Bihar,Patna,"IGSC Planetarium Complex, Patna - BSPCB",08-04-2025 15:00,25.610369,85.132568,NO2,13,13,13
India,Bihar,Gaya,"Collectorate, Gaya - BSPCB",08-04-2025 15:00,24.7955,84.9994,OZONE,19,21,20
India,Bihar,Gaya,"Kareemganj, Gaya - BSPCB",08-04-2025 15:00,24.792403,84.992416,NO2,2,7,5
India,Bihar,Gaya,"Kareemganj, Gaya - BSPCB",08-04-2025 15:00,24.792403,84.992416,OZONE,3,25,12
India,Bihar,Gaya,"SFTI Kusdihra, Gaya - BSPCB",08-04-2025 15:00,24.762518,84.982348,NH3,3,4,3
India,Bihar,Manguraha,"Forest Rest House, Manguraha - BSPCB",08-04-2025 15:00,27.308328,84.531742,NH3,1,1,1
India,Bihar,Motihari,"Gandak Colony, Motihari - BSPCB",08-04-2025 15:00,26.63086,84.90051,NH3,3,3,3
India,Bihar,Motihari,"Gandak Colony, Motihari - BSPCB",08-04-2025 15:00,26.63086,84.90051,SO2,6,13,10
India,Bihar,Motihari,"Gandak Colony, Motihari - BSPCB",08-04-2025 15:00,26.63086,84.90051,OZONE,11,13,12
India,Bihar,Bihar Sharif,"D M Colony, Bihar Sharif - BSPCB",08-04-2025 15:00,25.204762,85.51496,PM2.5,NA,NA,NA
India,Bihar,Bihar Sharif,"D M Colony, Bihar Sharif - BSPCB",08-04-2025 15:00,25.204762,85.51496,PM10,NA,NA,NA
India,Bihar,Bihar Sharif,"D M Colony, Bihar Sharif - BSPCB",08-04-2025 15:00,25.204762,85.51496,SO2,8,10,10
India,Bihar,Bihar Sharif,"D M Colony, Bihar Sharif - BSPCB",08-04-2025 15:00,25.204762,85.51496,OZONE,21,53,29
India,Bihar,Purnia,"Mariam Nagar, Purnia - BSPCB",08-04-2025 15:00,25.366336,87.117468,NH3,NA,NA,NA
India,Bihar,Saharsa,"Police Line, Saharsa - BSPCB",08-04-2025 15:00,25.892357,86.590325,NO2,6,8,7
India,Bihar,Sasaram,"Dada Peer, Sasaram - BSPCB",08-04-2025 15:00,24.952822,84.002396,NO2,2,3,2
India,Bihar,Sasaram,"Dada Peer, Sasaram - BSPCB",08-04-2025 15:00,24.952822,84.002396,SO2,5,5,5
India,Bihar,Hajipur,"Industrial Area, Hajipur - BSPCB",08-04-2025 15:00,25.697189,85.2459,SO2,3,8,5
India,Bihar,Patna,"Muradpur, Patna - BSPCB",08-04-2025 15:00,25.619651,85.147382,CO,22,71,47
India,Chhattisgarh,Raipur,"AIIMS, Raipur - CECB",08-04-2025 15:00,21.258815,81.578979,NH3,5,7,7
India,Chhattisgarh,Raipur,"AIIMS, Raipur - CECB",08-04-2025 15:00,21.258815,81.578979,SO2,5,29,12
India,Chhattisgarh,Raipur,"Bhatagaon New ISBT, Raipur - CECB",08-04-2025 15:00,21.219665,81.630094,NO2,47,326,132
India,Chhattisgarh,Raipur,"Bhatagaon New ISBT, Raipur - CECB",08-04-2025 15:00,21.219665,81.630094,CO,21,121,34
India,Chhattisgarh,Raipur,"Krishak Nagar, Raipur - CECB",08-04-2025 15:00,21.237755,81.705301,PM10,1,115,62
India,Chhattisgarh,Raipur,"Krishak Nagar, Raipur - CECB",08-04-2025 15:00,21.237755,81.705301,NO2,9,35,22
India,Chhattisgarh,Raipur,"Krishak Nagar, Raipur - CECB",08-04-2025 15:00,21.237755,81.705301,NH3,7,7,7
India,Chhattisgarh,Raipur,"Krishak Nagar, Raipur - CECB",08-04-2025 15:00,21.237755,81.705301,SO2,10,16,11
India,Chhattisgarh,Raipur,"Siltara Phase-II, Raipur - CECB",08-04-2025 15:00,21.371751,81.664929,PM10,66,158,107
India,Delhi,Delhi,"Ashok Vihar, Delhi - DPCC",08-04-2025 15:00,28.695381,77.181665,OZONE,3,308,252
India,Delhi,Delhi,"Aya Nagar, Delhi - IMD",08-04-2025 15:00,28.4706914,77.1099364,NO2,NA,NA,NA
India,Delhi,Delhi,"Bawana, Delhi - DPCC",08-04-2025 15:00,28.7762,77.051074,SO2,15,32,23
India,Delhi,Delhi,"Burari Crossing, Delhi - IMD",08-04-2025 15:00,28.7256504,77.2011573,OZONE,9,110,44
India,Delhi,Delhi,"CRRI Mathura Road, Delhi - IMD",08-04-2025 15:00,28.5512005,77.2735737,OZONE,47,313,250
India,Delhi,Delhi,"Chandni Chowk, Delhi - IITM",08-04-2025 15:00,28.656756,77.227234,NH3,NA,NA,NA
India,Delhi,Delhi,"DTU, Delhi - CPCB",08-04-2025 15:00,28.7500499,77.1112615,OZONE,25,44,29
India,Delhi,Delhi,"Dr. Karni Singh Shooting Range, Delhi - DPCC",08-04-2025 15:00,28.498571,77.26484,PM10,107,304,202
India,Delhi,Delhi,"Dr. Karni Singh Shooting Range, Delhi - DPCC",08-04-2025 15:00,28.498571,77.26484,NO2,38,131,65
India,Chhattisgarh,Kunjemura,"OP Jindal School, Kunjemura - CECB",08-04-2025 15:00,22.12665,83.483212,NH3,2,2,2
India,Chhattisgarh,Kunjemura,"OP Jindal School, Kunjemura - CECB",08-04-2025 15:00,22.12665,83.483212,CO,25,90,57
India,Chhattisgarh,Milupara,"Govt. Higher Secondary School, Milupara - CECB",08-04-2025 15:00,22.1910172,83.5197009,NH3,1,2,2
India,Chhattisgarh,Milupara,"Govt. Higher Secondary School, Milupara - CECB",08-04-2025 15:00,22.1910172,83.5197009,OZONE,14,31,23
India,Chhattisgarh,Raipur,"Siltara Phase-II, Raipur - CECB",08-04-2025 15:00,21.371751,81.664929,SO2,13,35,22
India,Chhattisgarh,Raipur,"Siltara Phase-II, Raipur - CECB",08-04-2025 15:00,21.371751,81.664929,CO,10,50,17
India,Chhattisgarh,Tumidih,"OP Jindal Industrial Park, Tumidih - CECB",08-04-2025 15:00,22.06631475,83.33820077,CO,10,32,25
India,Chandigarh,Chandigarh,"Sector 22, Chandigarh - CPCC",08-04-2025 15:00,30.735567,76.775714,NH3,15,18,17
India,Chandigarh,Chandigarh,"Sector-53, Chandigarh - CPCC",08-04-2025 15:00,30.719859,76.738637,PM10,65,182,118
India,Chandigarh,Chandigarh,"Sector-53, Chandigarh - CPCC",08-04-2025 15:00,30.719859,76.738637,NH3,5,10,7
India,Delhi,Delhi,"Ashok Vihar, Delhi - DPCC",08-04-2025 15:00,28.695381,77.181665,PM2.5,38,384,215
India,Delhi,Delhi,"Ashok Vihar, Delhi - DPCC",08-04-2025 15:00,28.695381,77.181665,NH3,8,11,10
India,Delhi,Delhi,"Ashok Vihar, Delhi - DPCC",08-04-2025 15:00,28.695381,77.181665,SO2,18,57,30
India,Chhattisgarh,Bhilai,"Hathkhoj, Bhilai - CECB",08-04-2025 15:00,21.224231,81.40835,CO,14,94,48
India,Chhattisgarh,Chhal,"Nawapara SECL Colony, Chhal - CECB",08-04-2025 15:00,22.118125,83.140608,NO2,10,29,16
India,Chhattisgarh,Bhilai,"Civic Center, Bhilai - Bhilai Steel Plant",08-04-2025 15:00,21.185571,81.343175,PM10,33,103,65
India,Chhattisgarh,Bhilai,"Civic Center, Bhilai - Bhilai Steel Plant",08-04-2025 15:00,21.185571,81.343175,OZONE,1,22,15
India,Delhi,Delhi,"Major Dhyan Chand National Stadium, Delhi - DPCC",08-04-2025 15:00,28.611281,77.237738,PM2.5,75,312,197
India,Delhi,Delhi,"Major Dhyan Chand National Stadium, Delhi - DPCC",08-04-2025 15:00,28.611281,77.237738,NO2,19,175,102
India,Delhi,Delhi,"Mandir Marg, Delhi - DPCC",08-04-2025 15:00,28.636429,77.201067,PM2.5,35,290,144
India,Delhi,Delhi,"Mandir Marg, Delhi - DPCC",08-04-2025 15:00,28.636429,77.201067,NH3,9,13,11
India,Delhi,Delhi,"Mandir Marg, Delhi - DPCC",08-04-2025 15:00,28.636429,77.201067,SO2,12,25,19
India,Delhi,Delhi,"Mundka, Delhi - DPCC",08-04-2025 15:00,28.684678,77.076574,PM2.5,77,322,211
India,Delhi,Delhi,"Mundka, Delhi - DPCC",08-04-2025 15:00,28.684678,77.076574,NO2,43,137,78
India,Delhi,Delhi,"Mundka, Delhi - DPCC",08-04-2025 15:00,28.684678,77.076574,NH3,7,11,9
India,Delhi,Delhi,"Shadipur, Delhi - CPCB",08-04-2025 15:00,28.6514781,77.1473105,OZONE,7,72,32
India,Delhi,Delhi,"Sirifort, Delhi - CPCB",08-04-2025 15:00,28.5504249,77.2159377,PM10,115,379,242
India,Delhi,Delhi,"Sirifort, Delhi - CPCB",08-04-2025 15:00,28.5504249,77.2159377,NH3,9,21,13
India,Delhi,Delhi,"Sirifort, Delhi - CPCB",08-04-2025 15:00,28.5504249,77.2159377,OZONE,7,70,28
India,Delhi,Delhi,"Sonia Vihar, Delhi - DPCC",08-04-2025 15:00,28.710508,77.249485,SO2,17,103,33
India,Delhi,Delhi,"Dwarka-Sector 8, Delhi - DPCC ",08-04-2025 15:00,28.5710274,77.0719006,NH3,13,16,14
India,Delhi,Delhi,"Dwarka-Sector 8, Delhi - DPCC ",08-04-2025 15:00,28.5710274,77.0719006,OZONE,5,220,84
India,Delhi,Delhi,"IGI Airport (T3), Delhi - IMD",08-04-2025 15:00,28.5627763,77.1180053,CO,50,102,58
India,Delhi,Delhi,"IHBAS, Dilshad Garden, Delhi - CPCB",08-04-2025 15:00,28.6811736,77.3025234,PM10,112,187,154
India,Delhi,Delhi,"Punjabi Bagh, Delhi - DPCC",08-04-2025 15:00,28.674045,77.131023,NH3,NA,NA,NA
India,Delhi,Delhi,"Pusa, Delhi - DPCC",08-04-2025 15:00,28.639652,77.146275,NH3,4,15,11
India,Delhi,Delhi,"Pusa, Delhi - DPCC",08-04-2025 15:00,28.639652,77.146275,OZONE,2,77,24
India,Delhi,Delhi,"Pusa, Delhi - IMD",08-04-2025 15:00,28.63611,77.173332,PM10,114,264,176
India,Delhi,Delhi,"IHBAS, Dilshad Garden, Delhi - CPCB",08-04-2025 15:00,28.6811736,77.3025234,CO,2,109,58
India,Delhi,Delhi,"IHBAS, Dilshad Garden, Delhi - CPCB",08-04-2025 15:00,28.6811736,77.3025234,OZONE,8,60,34
India,Delhi,Delhi,"ITO, Delhi - CPCB",08-04-2025 15:00,28.628624,77.24106,PM10,88,220,159
India,Delhi,Delhi,"Jawaharlal Nehru Stadium, Delhi - DPCC",08-04-2025 15:00,28.58028,77.233829,PM2.5,38,237,122
India,Delhi,Delhi,"Jawaharlal Nehru Stadium, Delhi - DPCC",08-04-2025 15:00,28.58028,77.233829,CO,46,122,73
India,Delhi,Delhi,"Lodhi Road, Delhi - IITM",08-04-2025 15:00,28.588333,77.221667,SO2,19,74,41
India,Delhi,Delhi,"Nehru Nagar, Delhi - DPCC",08-04-2025 15:00,28.56789,77.250515,NH3,5,18,8
India,Delhi,Delhi,"North Campus, DU, Delhi - IMD",08-04-2025 15:00,28.6573814,77.1585447,PM10,126,336,205
India,Delhi,Delhi,"Rohini, Delhi - DPCC",08-04-2025 15:00,28.732528,77.11992,SO2,16,44,27
India,Delhi,Delhi,"Shadipur, Delhi - CPCB",08-04-2025 15:00,28.6514781,77.1473105,PM2.5,177,500,332
India,Delhi,Delhi,"Najafgarh, Delhi - DPCC",08-04-2025 15:00,28.570173,76.933762,PM2.5,73,306,166
India,Gujarat,Gandhinagar,"GIFT City, Gandhinagar - IITM",08-04-2025 15:00,23.163798,72.677768,PM10,46,188,86
India,Gujarat,Gandhinagar,"GIFT City, Gandhinagar - IITM",08-04-2025 15:00,23.163798,72.677768,NH3,5,25,10
India,Gujarat,Gandhinagar,"IIPHG Lekawada, Gandhinagar - IITM",08-04-2025 15:00,23.243639,72.68994,SO2,6,28,11
India,Gujarat,Gandhinagar,"IIPHG Lekawada, Gandhinagar - IITM",08-04-2025 15:00,23.243639,72.68994,CO,7,117,31
India,Gujarat,Gandhinagar,"Sector-10, Gandhinagar - GPCB",08-04-2025 15:00,23.221714,72.654328,PM2.5,13,60,35
India,Gujarat,Gandhinagar,"Sector-10, Gandhinagar - GPCB",08-04-2025 15:00,23.221714,72.654328,PM10,27,241,91
India,Gujarat,Gandhinagar,"Sector-10, Gandhinagar - GPCB",08-04-2025 15:00,23.221714,72.654328,SO2,4,7,6
India,Gujarat,Gandhinagar,"Sector-10, Gandhinagar - GPCB",08-04-2025 15:00,23.221714,72.654328,OZONE,22,23,22
India,Gujarat,Ahmedabad,"Rakhial, Ahmedabad - IITM",08-04-2025 15:00,23.016834,72.625775,CO,26,174,34
India,Gujarat,Ahmedabad,"SAC ISRO Bopal, Ahmedabad - IITM",08-04-2025 15:00,23.041137,72.456691,OZONE,2,40,12
India,Gujarat,Ahmedabad,"SAC ISRO Satellite, Ahmedabad - IITM",08-04-2025 15:00,23.023389,72.515201,PM10,87,156,122
India,Gujarat,Ahmedabad,"SAC ISRO Satellite, Ahmedabad - IITM",08-04-2025 15:00,23.023389,72.515201,CO,14,89,18
India,Gujarat,Ahmedabad,"SVPI Airport Hansol, Ahmedabad - IITM",08-04-2025 15:00,23.076793,72.627874,NH3,3,8,5
India,Gujarat,Vapi,"Phase-1 GIDC, Vapi - GPCB",08-04-2025 15:00,20.362421,72.918013,SO2,31,42,36
India,Gujarat,Vatva,"Phase-4 GIDC, Vatva - GPCB",08-04-2025 15:00,22.969611,72.6435,PM10,54,229,103
India,Gujarat,Vatva,"Phase-4 GIDC, Vatva - GPCB",08-04-2025 15:00,22.969611,72.6435,OZONE,1,8,1
India,Haryana,Gurugram,"NISE Gwal Pahari, Gurugram - IMD",08-04-2025 15:00,28.422681,77.148944,CO,20,62,38
India,Gujarat,Nandesari,"GIDC, Nandesari - Nandesari Ind. Association",08-04-2025 15:00,22.410802,73.097923,SO2,NA,NA,NA
India,Gujarat,Surat,"Science Center, Surat - SMC",08-04-2025 15:00,21.170046,72.795405,PM2.5,NA,NA,NA
India,Gujarat,Surat,"Science Center, Surat - SMC",08-04-2025 15:00,21.170046,72.795405,CO,46,56,52
India,Gujarat,Vapi,"Phase-1 GIDC, Vapi - GPCB",08-04-2025 15:00,20.362421,72.918013,NO2,13,14,14
India,Gujarat,Ahmedabad,"Sardar Vallabhbhai Patel Stadium, Ahmedabad - IITM",08-04-2025 15:00,23.04307,72.562968,PM2.5,53,323,114
India,Gujarat,Ankleshwar,"GIDC, Ankleshwar - GPCB",08-04-2025 15:00,21.613267,73.010555,PM2.5,41,195,86
India,Gujarat,Ankleshwar,"GIDC, Ankleshwar - GPCB",08-04-2025 15:00,21.613267,73.010555,SO2,44,45,45
India,Gujarat,Ankleshwar,"GIDC, Ankleshwar - GPCB",08-04-2025 15:00,21.613267,73.010555,OZONE,31,40,34
India,Delhi,Delhi,"Sri Aurobindo Marg, Delhi - DPCC",08-04-2025 15:00,28.531346,77.190156,SO2,27,43,35
India,Delhi,Delhi,"Sri Aurobindo Marg, Delhi - DPCC",08-04-2025 15:00,28.531346,77.190156,CO,19,123,31
India,Delhi,Delhi,"Sri Aurobindo Marg, Delhi - DPCC",08-04-2025 15:00,28.531346,77.190156,OZONE,9,298,202
India,Delhi,Delhi,"Vivek Vihar, Delhi - DPCC",08-04-2025 15:00,28.672342,77.31526,OZONE,18,305,243
India,Gujarat,Ahmedabad,"Maninagar, Ahmedabad - GPCB",08-04-2025 15:00,23.002657,72.591912,NO2,30,31,30
India,Gujarat,Ahmedabad,"Maninagar, Ahmedabad - GPCB",08-04-2025 15:00,23.002657,72.591912,CO,10,92,23
India,Gujarat,Ahmedabad,"Raikhad, Ahmedabad - IITM",08-04-2025 15:00,23.020509,72.579261,PM2.5,39,113,59
India,Delhi,Delhi,"Wazirpur, Delhi - DPCC",08-04-2025 15:00,28.699793,77.165453,SO2,24,72,42
India,Delhi,Delhi,"Wazirpur, Delhi - DPCC",08-04-2025 15:00,28.699793,77.165453,OZONE,17,317,302
India,Gujarat,Nandesari,"GIDC, Nandesari - Nandesari Ind. Association",08-04-2025 15:00,22.410802,73.097923,NO2,NA,NA,NA
India,Karnataka,Chamarajanagar,"Urban, Chamarajanagar - KSPCB",08-04-2025 15:00,11.55358,76.55521,NH3,2,3,2
India,Karnataka,Chamarajanagar,"Urban, Chamarajanagar - KSPCB",08-04-2025 15:00,11.55358,76.55521,SO2,5,6,6
India,Karnataka,Chamarajanagar,"Urban, Chamarajanagar - KSPCB",08-04-2025 15:00,11.55358,76.55521,CO,22,28,26
India,Karnataka,Chikkaballapur,"Chikkaballapur Rural, Chikkaballapur - KSPCB",08-04-2025 15:00,13.428828,77.731418,OZONE,22,37,25
India,Karnataka,Chikkamagaluru,"Kalyana Nagara, Chikkamagaluru - KSPCB",08-04-2025 15:00,13.328028,75.797056,NO2,NA,NA,NA
India,Haryana,Panchgaon,"Amity University, Panchgaon - IITM",08-04-2025 15:00,28.3153,76.9143,PM10,24,70,44
India,Haryana,Panchgaon,"Amity University, Panchgaon - IITM",08-04-2025 15:00,28.3153,76.9143,NH3,4,10,8
India,Haryana,Panchgaon,"Amity University, Panchgaon - IITM",08-04-2025 15:00,28.3153,76.9143,CO,2,46,29
India,Himachal Pradesh,Baddi,"HIMUDA Complex Phase-1, Baddi - HPPCB",08-04-2025 15:00,30.943887,76.801991,NH3,5,7,6
India,Himachal Pradesh,Baddi,"HIMUDA Complex Phase-1, Baddi - HPPCB",08-04-2025 15:00,30.943887,76.801991,CO,48,88,57
India,Karnataka,Bengaluru,"Bapuji Nagar, Bengaluru - KSPCB",08-04-2025 15:00,12.951913,77.539784,PM2.5,24,166,61
India,Karnataka,Bengaluru,"Bapuji Nagar, Bengaluru - KSPCB",08-04-2025 15:00,12.951913,77.539784,NO2,4,23,9
India,Karnataka,Bengaluru,"Bapuji Nagar, Bengaluru - KSPCB",08-04-2025 15:00,12.951913,77.539784,SO2,5,37,20
India,Karnataka,Bengaluru,"Hebbal, Bengaluru - KSPCB",08-04-2025 15:00,13.029152,77.585901,PM2.5,27,85,52
India,Karnataka,Bengaluru,"Hebbal, Bengaluru - KSPCB",08-04-2025 15:00,13.029152,77.585901,OZONE,6,26,12
India,Karnataka,Bengaluru,"Jigani, Bengaluru - KSPCB",08-04-2025 15:00,12.7816279,77.6299145,SO2,NA,NA,NA
India,Karnataka,Bengaluru,"Jigani, Bengaluru - KSPCB",08-04-2025 15:00,12.7816279,77.6299145,CO,NA,NA,NA
India,Karnataka,Bengaluru,"Kasturi Nagar, Bengaluru - KSPCB",08-04-2025 15:00,13.003872,77.664217,SO2,8,10,9
India,Karnataka,Bengaluru,"Peenya, Bengaluru - CPCB",08-04-2025 15:00,13.0270199,77.494094,PM10,54,158,89
India,Karnataka,Bengaluru,"Hombegowda Nagar, Bengaluru - KSPCB",08-04-2025 15:00,12.938539,77.5901,NO2,15,82,27
India,Karnataka,Bengaluru,"Hombegowda Nagar, Bengaluru - KSPCB",08-04-2025 15:00,12.938539,77.5901,SO2,11,26,15
India,Karnataka,Bengaluru,"Hombegowda Nagar, Bengaluru - KSPCB",08-04-2025 15:00,12.938539,77.5901,CO,15,53,19
India,Karnataka,Bengaluru,"Jayanagar 5th Block, Bengaluru - KSPCB",08-04-2025 15:00,12.920984,77.584908,PM2.5,28,75,50
India,Karnataka,Bengaluru,"Silk Board, Bengaluru - KSPCB",08-04-2025 15:00,12.917348,77.622813,CO,8,29,19
India,Karnataka,Bengaluru,"Silk Board, Bengaluru - KSPCB",08-04-2025 15:00,12.917348,77.622813,OZONE,13,70,50
India,Karnataka,Chamarajanagar,"Urban, Chamarajanagar - KSPCB",08-04-2025 15:00,11.55358,76.55521,PM10,48,55,49
India,Karnataka,Belgaum,"Ramteerth Nagar, Belgaum - KSPCB",08-04-2025 15:00,15.888653,74.541751,SO2,NA,NA,NA
India,Karnataka,Bengaluru,"BTM Layout, Bengaluru - CPCB",08-04-2025 15:00,12.9135218,77.5950804,NH3,6,8,7
India,Karnataka,Bengaluru,"RVCE-Mailasandra, Bengaluru - KSPCB",08-04-2025 15:00,12.921418,77.502466,PM2.5,70,72,71
India,Jharkhand,Dhanbad,"Sardar Patel Nagar, Dhanbad - JSPCB",08-04-2025 15:00,23.80569,86.44268,PM2.5,2,99,43
India,Karnataka,Kalaburagi,"Mahatma Basaveswar Colony, Kalaburgi - KSPCB",08-04-2025 15:00,17.336318,76.847397,SO2,3,7,4
India,Karnataka,Kalaburagi,"Mahatma Basaveswar Colony, Kalaburgi - KSPCB",08-04-2025 15:00,17.336318,76.847397,OZONE,1,22,10
India,Karnataka,Koppal,"Diwator Nagar, Koppal - KSPCB",08-04-2025 15:00,15.34763,76.181767,PM2.5,14,67,37
India,Karnataka,Madikeri,"Stuart Hill, Madikeri - KSPCB",08-04-2025 15:00,12.415911,75.73505,PM2.5,29,52,39
India,Karnataka,Madikeri,"Stuart Hill, Madikeri - KSPCB",08-04-2025 15:00,12.415911,75.73505,CO,8,22,16
India,Karnataka,Mangalore,"Kadri, Mangalore - KSPCB",08-04-2025 15:00,12.88925,74.853,PM10,40,52,46
India,Kerala,Eloor,"Udyogamandal, Eloor - Kerala PCB",08-04-2025 15:00,10.073232,76.302765,OZONE,11,39,16
India,Kerala,Kannur,"Thavakkara, Kannur - Kerala PCB",08-04-2025 15:00,11.875,75.3732,NH3,1,2,1
India,Kerala,Kollam,"Polayathode, Kollam - Kerala PCB",08-04-2025 15:00,8.8787,76.6073,PM2.5,28,35,32
India,Kerala,Thiruvananthapuram,"Kariavattom, Thiruvananthapuram - Kerala PCB",08-04-2025 15:00,8.5637,76.8865,NO2,6,7,7
India,Karnataka,Chikkamagaluru,"Kalyana Nagara, Chikkamagaluru - KSPCB",08-04-2025 15:00,13.328028,75.797056,CO,11,164,164
India,Karnataka,Davanagere,"Devaraj Urs Badavane, Davanagere - KSPCB",08-04-2025 15:00,14.4758,75.9052,SO2,6,9,7
India,Karnataka,Davanagere,"Devaraj Urs Badavane, Davanagere - KSPCB",08-04-2025 15:00,14.4758,75.9052,CO,34,42,37
India,Karnataka,Davanagere,"Devaraj Urs Badavane, Davanagere - KSPCB",08-04-2025 15:00,14.4758,75.9052,OZONE,18,20,19
India,Karnataka,Dharwad,"Kalabhavan, Dharwad - KSPCB",08-04-2025 15:00,15.459706,75.008381,NH3,4,6,5
India,Karnataka,Mangalore,"Kadri, Mangalore - KSPCB",08-04-2025 15:00,12.88925,74.853,NH3,1,1,1
India,Karnataka,Mangalore,"Kadri, Mangalore - KSPCB",08-04-2025 15:00,12.88925,74.853,SO2,5,6,5
India,Karnataka,Mysuru,"Hebbal 1st Stage, Mysuru - KSPCB",08-04-2025 15:00,12.21041,76.37376,SO2,1,48,13
India,Karnataka,Ramanagara,"Vijay Nagar, Ramanagara - KSPCB",08-04-2025 15:00,12.733409,77.298051,SO2,10,19,13
India,Karnataka,Ramanagara,"Vijay Nagar, Ramanagara - KSPCB",08-04-2025 15:00,12.733409,77.298051,OZONE,4,251,198
India,Kerala,Thrissur,"Corporation Ground, Thrissur - Kerala PCB",08-04-2025 15:00,10.5324,76.2159,PM2.5,46,57,52
India,Madhya Pradesh,Bhopal,"Idgah Hills, Bhopal - MPPCB",08-04-2025 15:00,23.264759,77.381568,PM10,71,137,100
India,Madhya Pradesh,Bhopal,"Paryavaran Parisar, Bhopal - MPPCB",08-04-2025 15:00,23.210494,77.425409,PM10,63,175,125
India,Madhya Pradesh,Gwalior,"Deen Dayal Nagar, Gwalior - MPPCB",08-04-2025 15:00,26.259242,78.216432,NH3,9,13,11
India,Madhya Pradesh,Gwalior,"Maharaj Bada, Gwalior - MPPCB",08-04-2025 15:00,26.200388,78.147714,PM2.5,35,260,73
India,Madhya Pradesh,Indore,"Airport Area, Indore - IMC",08-04-2025 15:00,22.7289,75.8076,PM2.5,41,93,61
India,Madhya Pradesh,Bhopal,"T T Nagar, Bhopal - MPPCB",08-04-2025 15:00,23.233584,77.400574,PM10,92,188,127
India,Madhya Pradesh,Dewas,"Bhopal Chauraha, Dewas - MPPCB",08-04-2025 15:00,22.9682591,76.064118,NH3,4,10,8
India,Karnataka,Yadgir,"Collector Office, Yadgir - KSPCB",08-04-2025 15:00,16.7602,77.1428,SO2,9,22,14
India,Kerala,Eloor,"Udyogamandal, Eloor - Kerala PCB",08-04-2025 15:00,10.073232,76.302765,NO2,7,9,8
India,Karnataka,Gadag,"Panchal Nagar, Gadag - KSPCB",08-04-2025 15:00,15.411456,75.638133,CO,43,48,45
India,Madhya Pradesh,Indore,"Airport Area, Indore - IMC",08-04-2025 15:00,22.7289,75.8076,OZONE,6,21,16
India,Madhya Pradesh,Indore,"Chhoti Gwaltoli, Indore - MPPCB",08-04-2025 15:00,22.431,75.5213,PM2.5,43,332,127
India,Madhya Pradesh,Indore,"Chhoti Gwaltoli, Indore - MPPCB",08-04-2025 15:00,22.431,75.5213,NO2,22,117,47
India,Madhya Pradesh,Indore,"Regional Park, Indore - IMC",08-04-2025 15:00,22.678,75.8559,SO2,58,64,61
India,Madhya Pradesh,Indore,"Residency Area, Indore - IMC",08-04-2025 15:00,22.7084,75.8815,OZONE,10,23,16
India,Madhya Pradesh,Jabalpur,"Govindh Bhavan Colony, Jabalpur - JMC",08-04-2025 15:00,23.163174,79.973061,PM2.5,20,58,38
India,Madhya Pradesh,Mandideep,"Sector-D Industrial Area, Mandideep - MPPCB",08-04-2025 15:00,23.10844,77.511428,SO2,4,108,35
India,Madhya Pradesh,Pithampur,"Sector-2 Industrial Area, Pithampur - MPPCB",08-04-2025 15:00,22.624758,75.675238,PM10,64,220,136
India,Madhya Pradesh,Pithampur,"Sector-2 Industrial Area, Pithampur - MPPCB",08-04-2025 15:00,22.624758,75.675238,SO2,13,53,23
India,Madhya Pradesh,Ratlam,"Shasthri Nagar, Ratlam - IPCA Lab",08-04-2025 15:00,23.331731,75.045981,PM10,64,193,119
India,Madhya Pradesh,Sagar,"Civil Lines, Sagar - MPPCB",08-04-2025 15:00,23.838586,78.759431,PM2.5,23,79,47
India,Madhya Pradesh,Sagar,"Civil Lines, Sagar - MPPCB",08-04-2025 15:00,23.838586,78.759431,CO,56,82,65
India,Madhya Pradesh,Sagar,"Deen Dayal Nagar, Sagar - MPPCB",08-04-2025 15:00,23.8640158,78.80289321,CO,39,52,47
India,Madhya Pradesh,Satna,"Bandhavgar Colony, Satna - Birla Cement",08-04-2025 15:00,24.58434363,80.8549414,PM10,55,56,55
India,Madhya Pradesh,Singrauli,"Suryakiran Bhawan NCL, Singrauli - MPPCB",08-04-2025 15:00,24.10897,82.64558,PM10,101,256,153
India,Madhya Pradesh,Singrauli,"Suryakiran Bhawan NCL, Singrauli - MPPCB",08-04-2025 15:00,24.10897,82.64558,NO2,13,102,53
India,Madhya Pradesh,Ujjain,"Mahakaleshwar Temple, Ujjain - MPPCB",08-04-2025 15:00,23.182719,75.768218,CO,27,114,61
India,Maharashtra,Ahmednagar,"Tarakpur, Ahmednagar - MPCB",08-04-2025 15:00,19.10122,74.73339,PM10,82,356,139
India,Maharashtra,Ahmednagar,"Tarakpur, Ahmednagar - MPCB",08-04-2025 15:00,19.10122,74.73339,SO2,1,16,4
India,Maharashtra,Ahmednagar,"Tarakpur, Ahmednagar - MPCB",08-04-2025 15:00,19.10122,74.73339,OZONE,6,91,50
